"FIPS","state","county","percentage16_Donald_Trump","percentage16_Hillary_Clinton","total_votes16","votes16_Donald_Trump","votes16_Hillary_Clinton","percentage20_Donald_Trump","percentage20_Joe_Biden","total_votes20","votes20_Donald_Trump","votes20_Joe_Biden","lat","long","cases","deaths","TotalPop","Men","Women","Hispanic","White","Black","Native","Asian","Pacific","VotingAgeCitizen","Income","IncomeErr","IncomePerCap","IncomePerCapErr","Poverty","ChildPoverty","Professional","Service","Office","Construction","Production","Drive","Carpool","Transit","Walk","OtherTransp","WorkAtHome","MeanCommute","Employed","PrivateWork","PublicWork","SelfEmployed","FamilyWork","Unemployment","RUCC_code","UBI_code","Less.than.a.high.school.diploma..2014.18","High.school.diploma.only..2014.18","Some.college.or.associate.s.degree..2014.18","Bachelor.s.degree.or.higher..2014.18","Percent.of.adults.with.less.than.a.high.school.diploma..2014.18","Percent.of.adults.with.a.high.school.diploma.only..2014.18","Percent.of.adults.completing.some.college.or.associate.s.degree..2014.18","Percent.of.adults.with.a.bachelor.s.degree.or.higher..2014.18","tot_poveri","perc_poveri","estimated_median_household_income","county_area_sq_mi","pop_density"
"01001","AL","Autauga",0.734,0.24,24661,18110,5908,0.715,0.27,27639,19764,7450,32.53952745,-86.64408227,2173,31,55036,26899,28137,2.7,75.4,18.9,0.3,0.9,0,41016,55317,2838,27824,2024,13.7,20.1,35.3,18,23.2,8.1,15.4,86,9.6,0.1,0.6,1.3,2.5,25.8,24112,74.1,20.2,5.6,0.1,5.2,2,2,4204,12119,10552,10291,11.3,32.6,28.4,27.7,7587,13.8,59338,594.44,92.5846174550838
"01003","AL","Baldwin",0.774,0.196,94090,72780,18409,0.762,0.223,108945,83055,24344,30.72774991,-87.72207058,6966,71,203360,99527,103833,4.4,83.1,9.5,0.8,0.7,0,155376,52562,1348,29364,735,11.8,16.1,35.7,18.2,25.6,9.7,10.8,84.7,7.6,0.1,0.8,1.1,5.6,27,89527,80.7,12.9,6.3,0.1,5.5,3,2,14310,40579,46025,46075,9.7,27.6,31.3,31.3,21069,9.8,57588,1589.78,127.917070286455
"01005","AL","Barbour",0.523,0.467,10390,5431,4848,0.536,0.456,10457,5605,4772,31.868263,-85.3871286,1061,9,26201,13976,12225,4.2,45.7,47.8,0.2,0.6,0,20269,33368,2551,17561,798,27.2,44.9,25,16.8,22.6,11.5,24.1,83.4,11.1,0.3,2.2,1.7,1.3,23.4,8878,74.1,19.1,6.5,0.3,12.4,6,6,4901,6486,4566,2220,27,35.7,25.1,12.2,6788,30.9,34382,884.88,29.6096645872887
"01007","AL","Bibb",0.77,0.214,8748,6733,1874,0.784,0.207,9573,7508,1982,32.99642064,-87.1251146,878,15,22580,12251,10329,2.4,74.6,22,0.4,0,0,17662,43404,3431,20911,1889,15.2,26.6,24.4,17.6,19.7,15.9,22.4,86.4,9.5,0.7,0.3,1.7,1.5,30,8171,76,17.4,6.3,0.3,8.2,1,1,2650,7471,3846,1813,16.8,47.3,24.4,11.5,4400,21.8,46064,622.58,36.2684313662501
"01009","AL","Blount",0.899,0.085,25384,22808,2150,0.896,0.096,27459,24595,2627,33.98210918,-86.56790593,2095,25,57667,28490,29177,9,87.4,1.5,0.3,0.1,0,42513,47412,2630,22021,850,15.6,25.4,28.5,12.9,23.3,15.8,19.5,86.8,10.2,0.1,0.4,0.4,2.1,35,21380,83.9,11.9,4,0.1,4.9,1,1,7861,13489,13267,5010,19.8,34,33.5,12.6,7527,13.2,50412,644.78,89.4367070938925
"01011","AL","Bullock",0.242,0.751,4701,1139,3530,0.248,0.747,4603,1143,3439,32.10030533,-85.71265535,655,17,10478,5616,4862,0.3,21.6,75.6,1,0.7,0,8212,29655,5376,20856,2355,28.5,50.4,19.7,17.1,18.6,14,30.6,73.1,15.7,0.3,6.2,1.7,3,29.8,4290,81.4,13.6,5,0,12.1,6,6,1760,2817,1582,945,24.8,39.7,22.3,13.3,3610,42.5,29267,622.81,16.8237504214769
"01013","AL","Butler",0.563,0.428,8685,4891,3716,0.576,0.418,9466,5448,3953,31.75300095,-86.68057478,1024,41,20126,9416,10710,0.3,52.2,44.7,0.1,1.1,0,15459,36326,2701,19004,943,24.4,34.8,26.9,17.3,18.5,11.6,25.7,83.6,12.6,0,0.9,0.9,2,23.2,7727,79.1,15.3,5.3,0.3,7.6,6,6,2141,6091,3421,2235,15.4,43.9,24.6,16.1,4731,24.5,37365,776.83,25.9078562877335
"01015","AL","Calhoun",0.692,0.279,47376,32803,13197,0.689,0.298,50743,34964,15118,33.77483727,-85.82630386,4892,65,115527,55593,59934,3.6,72.7,20.4,0.2,1,0,88383,43686,1491,23638,793,18.6,26.6,29,17.5,23.7,10.4,19.4,85,9.2,0.2,1.3,1.1,3.2,24.8,47392,74.9,19.9,5.1,0.1,10.1,3,2,12620,25653,26643,14219,15.9,32.4,33.7,18,21719,19.5,45400,605.87,190.679518708634
"01017","AL","Chambers",0.566,0.418,13778,7803,5763,0.573,0.416,15269,8748,6356,32.91360079,-85.39072749,1392,47,33895,16320,17575,2.2,56.2,39.3,0.3,1,0,26259,37342,2011,22002,1205,18.8,29.1,24.3,13.5,23,11.6,27.6,87.1,9.7,0.2,0.6,0.5,2,23.6,14527,84.5,11.8,3.7,0,6.4,6,5,4383,9060,7003,3118,18.6,38.4,29.7,13.2,6181,18.7,39917,596.53,56.8202772702127
"01019","AL","Cherokee",0.839,0.145,10503,8809,1524,0.86,0.132,12275,10562,1619,34.17805983,-85.60638968,787,15,25855,12862,12993,1.6,91.8,5,0.5,0.1,0,20620,40041,2316,23010,1354,16.1,20,28.8,14.8,18.1,11.9,26.5,85,12.1,0.4,0.3,0.3,2,26.5,9879,74.8,17.1,8.1,0,5.3,6,6,3692,7157,5417,2407,19.8,38.3,29,12.9,4180,16.3,42132,553.7,46.6949611703088
"01021","AL","Chilton",0.825,0.159,18255,15068,2909,0.833,0.159,19260,16052,3056,32.85044126,-86.7173256,1946,33,43805,21554,22251,7.7,80.4,9.5,0.4,0.4,0,31776,43501,2877,23368,1925,19.4,27.8,25.3,14.5,23.7,15.5,21,83.2,12.6,0.1,0.6,1.8,1.7,32.5,17675,81.1,14,4.5,0.4,6.7,1,1,5302,13125,7147,4219,17.8,44.1,24,14.2,7542,17.3,47547,692.85,63.2243631377643
"01023","AL","Choctaw",0.564,0.428,7268,4102,3109,0.576,0.419,7461,4294,3126,32.02227341,-88.2656443,395,12,13188,6277,6911,0.5,56.3,42.1,0,0.1,0,10454,32122,2797,20994,1307,22.3,32.8,23.6,15.4,22,17.1,21.9,81.8,13.7,0,1.7,1.2,1.6,32.7,4301,79.9,14.8,4.9,0.4,9.8,9,10,1754,3606,2851,1225,18.6,38.2,30.2,13,2806,22.1,39907,913.5,14.4367816091954
"01025","AL","Clarke",0.55,0.442,12936,7109,5712,0.558,0.437,13102,7310,5730,31.68099859,-87.83548597,1406,17,24625,11649,12976,0.2,53,45.7,0.1,0.5,0.1,19087,33827,2336,20765,1203,25.3,30.7,21.6,14.3,24.8,13.7,25.6,83.7,11.9,0.2,0.7,2.7,0.9,23.9,7933,83.1,11.8,5.1,0,15.2,7,11,3175,7372,4205,2118,18.8,43.7,24.9,12.6,5381,22.8,40741,1238.47,19.8834045233231
"01027","AL","Clay",0.796,0.188,6572,5230,1234,0.808,0.183,6913,5589,1262,33.26984193,-85.85836077,776,12,13407,6471,6936,3.1,80.2,14.7,0.9,0,0,10332,37287,6507,21330,1553,19.1,23.5,22.2,14.6,18.4,12.9,31.9,87.5,6,0,2.8,0.6,3,30.3,5509,77.8,14.5,7.7,0,6.4,9,10,2275,3366,2700,944,24.5,36.3,29.1,10.2,2285,17.6,39201,603.96,22.1984899662229
"01029","AL","Cleburne",0.878,0.105,6532,5738,684,0.898,0.093,7210,6472,672,33.67679204,-85.52005899,590,9,14939,7367,7572,2.4,92.7,2.8,0.3,0.5,0,11329,37396,5390,20873,1251,19.1,31,25.7,11.4,23.2,18,21.7,81.8,14.5,0,0.9,0.1,2.7,33.2,5743,76.1,15.7,8.2,0,7.8,8,4,2364,4135,2518,1428,22.6,39.6,24.1,13.7,2356,16,46495,560.1,26.672022853062
"01031","AL","Coffee",0.771,0.204,20513,15825,4194,0.759,0.228,22180,16832,5050,31.39932826,-85.98901039,1878,11,51073,25225,25848,6.7,71,17.1,1,1.3,0,38026,49821,1945,26216,950,16.1,26.3,31.6,17.3,21.4,13.1,16.7,86.6,8.1,0,1,1.4,2.8,21.7,21639,73.6,20.7,5.6,0.1,6,4,5,4833,9723,12181,8175,13.8,27.9,34.9,23.4,7053,13.8,55122,678.97,75.2212910732433
"01033","AL","Colbert",0.679,0.296,24626,16718,7296,0.702,0.286,24668,17311,7057,34.69847452,-87.80168544,2307,32,54435,26143,28292,2.4,78.8,15.9,0.7,0.5,0,42195,45477,1959,23675,816,16.8,24.1,27.1,15.4,26,11.2,20.3,89.1,7.3,0.1,0.7,0.8,2,23.1,22180,78.1,16.1,5.5,0.3,6.9,3,2,6016,13927,11459,7236,15.6,36,29.7,18.7,7459,13.8,49055,592.62,91.8548142148426
"01035","AL","Conecuh",0.522,0.469,6543,3413,3069,0.535,0.46,6419,3435,2951,31.43401703,-86.99320044,577,13,12649,6040,6609,1.8,50.3,46.3,0.2,0,0,9812,30434,3446,16337,934,26.4,39.3,15.9,19.7,24.3,12.8,27.4,90,6.7,0.4,0.8,0.4,1.7,29.6,3945,79.5,12.3,7.2,1,14.5,7,11,1703,4315,1881,949,19.2,48.8,21.3,10.7,2979,24.4,32613,850.16,14.8783758351369
"01037","AL","Coosa",0.646,0.341,5223,3376,1780,0.663,0.328,5472,3626,1794,32.93690146,-86.24847739,223,3,10955,5474,5481,0.1,65.3,33.2,0.1,0,0,8989,34792,3587,20342,1728,14.4,17.9,17.6,23.2,23.7,14.5,20.9,83.2,9.7,0.6,1.7,0.6,4.2,29.8,3897,78.8,15.9,5.4,0,11.3,8,3,1675,3178,2424,953,20.4,38.6,29.5,11.6,1973,18.9,42423,650.93,16.8297666415744
"01039","AL","Covington",0.836,0.15,15818,13222,2379,0.837,0.156,17418,14579,2717,31.2477854,-86.45050893,1892,30,37519,18133,19386,1.6,83.5,13,0.3,0.4,0,29164,39467,2392,22431,830,17.6,25,29.2,14.3,22.2,15.8,18.4,86.8,8.6,0.2,1.1,1.5,1.9,25.2,14686,80,13.2,6.7,0.1,10.7,6,6,4530,9368,8588,3952,17.1,35.4,32.5,14.9,7239,19.9,40203,1030.46,36.4099528365972
"01041","AL","Crenshaw",0.722,0.266,6252,4511,1663,0.735,0.257,6617,4864,1700,31.72941803,-86.31593104,621,30,13866,6786,7080,1.8,71.2,23.1,0.8,1.4,0,10551,38937,3177,21580,1212,17.6,22.5,26.4,13.1,24.1,13.2,23.3,81.2,12.2,0.1,1.7,0.8,4,28.6,5700,73,19.1,7.8,0.2,6.4,8,6,2091,3753,2326,1505,21.6,38.8,24,15.6,2661,19.5,39057,608.84,22.77445634321
"01043","AL","Cullman",0.878,0.1,37278,32734,3730,0.882,0.107,41751,36804,4454,34.13020303,-86.86888037,2831,25,81703,40223,41480,4.2,92.3,1.1,0.4,0.6,0,62012,40997,1715,21857,729,16.4,19.6,29.3,14.6,23.4,14,18.6,88.3,8.4,0.1,0.6,0.6,2,26.5,32072,81.3,11.9,6.3,0.4,5.8,4,3,10405,20382,18559,7866,18.2,35.6,32.4,13.7,11925,14.5,45796,734.84,111.18474770018
"01045","AL","Dale",0.741,0.237,18617,13798,4408,0.725,0.262,19699,14281,5154,31.43037123,-85.61095742,1926,52,49393,24524,24869,6.1,69.5,19.2,0.5,0.9,0,37173,44711,2010,23194,868,19.6,27.2,28.2,15.3,26.6,13.7,16.1,87.1,6.7,0.1,2.1,1.8,2.2,20.7,17988,73.6,20.7,5.6,0.2,10.4,4,5,4732,10924,12036,5690,14.2,32.7,36.1,17,7743,16.2,45309,561.15,88.0210282455671
"01047","AL","Dallas",0.309,0.685,18730,5784,12826,0.309,0.685,17861,5523,12228,32.32688101,-87.1086671,1907,27,40755,18809,21946,1,27.7,70.2,0,0.4,0,30303,30065,1775,18248,759,31.9,49.5,26.7,18.2,20.9,8.8,25.3,86.6,8.9,0.2,1.7,1.4,1.2,22.1,14461,78.8,15.2,5.6,0.4,13.7,4,5,5135,9368,8076,4021,19.3,35.2,30.4,15.1,11841,31.4,34035,978.7,41.6419740472055
"01049","AL","DeKalb",0.835,0.141,26086,21779,3682,0.844,0.146,29322,24744,4271,34.45946862,-85.80782906,3691,30,71194,35328,35866,14.3,80.8,1.4,1.2,0.3,0.1,49579,38842,2154,20020,899,21.5,31,23.7,15.2,20.8,12.4,28,86.5,9.8,0,0.9,0.6,2.1,23.2,28416,78,12.1,9.7,0.1,5.1,6,6,12394,15956,13441,6085,25.9,33.3,28.1,12.7,14975,21.3,39491,777.09,91.6161577166094
"01051","AL","Elmore",0.748,0.229,36905,27619,8436,0.736,0.252,40891,30089,10304,32.59785413,-86.14415284,3314,59,80989,39357,41632,2.9,73.4,21.2,0.3,0.6,0,61966,54981,2614,26251,957,13.5,20.4,34.8,13.2,26.3,11,14.7,86.2,10.2,0.1,0.6,0.6,2.2,28,33054,72.9,21.4,5.6,0.1,7.3,2,2,7594,18304,16197,13664,13.6,32.8,29,24.5,8559,11.2,60367,618.49,130.946337046678
"01053","AL","Escambia",0.676,0.309,15213,10282,4698,0.684,0.309,15861,10844,4894,31.1256789,-87.15918694,1768,31,37621,19326,18295,2.2,60.2,32.2,3.6,0.4,0.1,29129,35026,2265,18164,902,23.8,33.3,24.6,21.2,24.6,11.3,18.3,91.3,7,0.1,0.3,0.5,0.8,22.6,12134,75.6,19.7,4.6,0.1,13.7,6,6,4792,11546,6340,3287,18.5,44.5,24.4,12.7,8022,23.6,38418,945.08,39.8072120878656
"01055","AL","Etowah",0.739,0.238,43474,32132,10350,0.745,0.242,47460,35343,11487,34.04567266,-86.04051873,4530,54,103132,49738,53394,3.7,78.3,15.4,0.5,0.7,0.1,78727,42064,1487,22278,640,17.9,28.7,29.7,18.5,21.8,9.4,20.5,84.8,9.2,0.3,0.6,0.7,4.4,24,41412,80.3,13.9,5.5,0.2,7.6,3,2,11147,23665,24416,12767,15.5,32.9,33.9,17.7,17509,17.5,44903,534.99,192.773696704611
"01057","AL","Fayette",0.818,0.166,8196,6705,1358,0.833,0.159,8756,7295,1390,33.72076938,-87.73886638,608,14,16657,8191,8466,1.7,85,11.5,0,0.5,0,13044,36541,2175,21191,1541,18.1,25,29,17.9,18.9,10.8,23.5,84.2,11.6,0,1.3,0.5,2.4,27.9,6307,79.6,15.4,4.8,0.2,8.4,6,6,2060,4868,3273,1516,17.6,41.5,27.9,12.9,3801,23.5,39254,627.66,26.5382531944046
"01059","AL","Franklin",0.792,0.184,11955,9466,2197,0.825,0.166,12564,10364,2085,34.44235334,-87.84289505,2185,32,31507,15818,15689,16.3,77.7,4.7,0.2,0.4,0.1,21935,39501,2912,19314,1021,23,42,24.4,13.9,21.1,11.9,28.7,84.9,10.1,0.2,0.2,2.7,1.9,28.4,12534,78.5,15.6,6,0,8.2,6,6,4835,7666,5632,2679,23.2,36.8,27.1,12.9,5939,19.2,39388,633.82,49.7096967593323
"01061","AL","Geneva",0.855,0.131,11659,9967,1522,0.865,0.127,12538,10844,1592,31.09389027,-85.83572839,975,7,26572,13008,13564,3.8,84,9.2,0.6,0.4,0,20489,39293,2810,21084,1064,22.5,37.6,22.9,17.3,21.5,19.1,19.3,83.5,10.3,0,0.6,2.4,3.1,27.2,10306,73.8,16.5,9.4,0.3,8.9,3,2,3891,6924,5720,2063,20.9,37.2,30.8,11.1,5537,21.3,37823,574.41,46.259640326596
"01063","AL","Greene",0.172,0.824,4862,838,4006,0.183,0.813,4771,875,3880,32.85504247,-87.95684022,351,17,8533,4058,4475,1.2,17.1,80.3,0.6,0,0,6533,20954,3315,14197,1242,38.8,67.8,22.3,18,25.9,9.2,24.6,80,12.8,0,1.1,1.9,4.1,29.7,2411,73.4,22,4.6,0,14.8,8,6,1406,2149,1689,589,24.1,36.8,29,10.1,2459,30.1,28524,647.11,13.1863207182705
"01065","AL","Hale",0.396,0.596,8010,3172,4772,0.403,0.592,7922,3190,4687,32.76039258,-87.63284988,796,30,14995,7049,7946,1.3,39.5,58.7,0.2,0.2,0,11484,34679,2808,20269,1272,26.1,37.7,27.6,18.3,22.9,11,20.1,90.4,5.9,0,0.3,1.4,1.9,29.9,5252,82.1,12.6,5.2,0,11.7,3,2,1647,4292,2711,1421,16.4,42.6,26.9,14.1,3705,25.6,34724,643.94,23.2863310246296
"01067","AL","Henry",0.701,0.285,8017,5623,2286,0.712,0.279,9266,6593,2589,31.51148016,-85.24267944,747,6,17110,8208,8902,2.5,68.7,27.8,0,0,0,13377,45569,3006,23983,1525,13.7,17.2,32.8,19,19.4,11,17.8,85.9,7.5,0,0.7,3.3,2.6,25.6,6949,80.5,14.7,4.8,0.1,6.7,3,2,2412,4081,3487,2187,19.8,33.5,28.7,18,3037,17.9,46027,561.75,30.4583889630619
"01069","AL","Houston",0.727,0.251,42030,30567,10547,0.708,0.278,45750,32384,12738,31.15197924,-85.29939599,4320,35,104108,49905,54203,3.2,67.2,26.5,0.3,0.8,0,78486,42803,919,24781,391,18.5,29.5,31.1,18.6,25.7,10.2,14.3,89.2,6.9,0.1,0.7,0.8,2.3,21.3,44108,81.9,12.1,5.8,0.2,7.6,3,2,10261,22680,23681,15076,14.3,31.6,33,21,17032,16.5,47993,579.82,179.552274843917
"01071","AL","Jackson",0.801,0.176,20785,16643,3663,0.832,0.157,23602,19644,3709,34.78144169,-85.99750489,2347,19,52326,25712,26614,2.9,89.3,3.2,1,0.5,0.1,40672,39281,1994,20946,910,19,27.4,26.1,12.9,21.5,11.3,28.1,87,8.4,0.1,1.3,0.9,2.3,25.7,20261,77.4,15.5,7,0.2,7.7,6,5,6526,15181,10238,5280,17.5,40.8,27.5,14.2,10046,19.7,41929,1077.87,48.5457429931253
"01073","AL","Jefferson",0.45,0.522,290111,130614,151581,0.426,0.557,324675,138443,180936,33.55554728,-86.895063,24472,388,659460,312333,347127,3.7,50.4,42.4,0.2,1.5,0,491022,49321,913,29456,452,17.6,25.6,38.8,16.9,25.3,7.3,11.6,84.4,9.4,0.9,1.4,1,2.8,23.8,300739,81.8,13.5,4.5,0.2,7.7,1,1,46025,120037,137208,145462,10.3,26.8,30.6,32.4,103604,16.1,55013,1111.28,593.423799582464
"01075","AL","Lamar",0.84,0.149,6931,5819,1035,0.858,0.136,7187,6168,978,33.77995024,-88.09668032,534,6,14021,6875,7146,1.5,86,10.8,0.3,0,0,10888,36016,2778,21152,2374,23.1,37.3,28.8,14.5,18.9,13.4,24.4,84.4,13.8,0.6,0.2,0.1,1,28.1,5376,76.6,18.5,3.8,1,7.9,8,7,1741,3950,2967,1235,17.6,39.9,30,12.5,2374,17.4,40936,604.85,23.1809539555262
"01077","AL","Lauderdale",0.715,0.254,38813,27735,9877,0.715,0.269,44149,31578,11872,34.90171875,-87.65624729,2743,43,92590,44263,48327,2.5,84.9,9.8,0.4,0.7,0,72887,44888,1370,25803,908,16.3,21.9,31.2,18.6,24.4,10.6,15.2,88,7.7,0.2,1.7,0.7,1.8,24.1,39857,77.6,15.6,6.6,0.1,6.6,3,2,7979,22812,17453,15185,12.6,36,27.5,23.9,12645,14,48707,667.7,138.670061404823
"01079","AL","Lawrence",0.734,0.247,14623,10732,3611,0.769,0.222,15957,12266,3544,34.52041498,-87.31069453,941,33,33288,16164,17124,2.1,76.6,11.4,5.2,0.1,0,25915,43779,3181,22419,1154,16.6,19,23.6,15.4,18.4,15,27.5,86.6,9.3,0.1,0.9,0.5,2.5,28,12476,80.6,14.2,4.8,0.4,7.2,3,2,4919,9710,6028,2738,21,41.5,25.8,11.7,6297,19.3,43909,690.68,48.195980772572
"01081","AL","Lee",0.595,0.364,57668,34321,20987,0.592,0.389,70980,42019,27600,32.60154883,-85.35132246,6715,65,156597,77172,79425,3.7,67.6,22.9,0.1,3.8,0,117422,47564,1712,26170,938,22,24,41,16.6,22.7,7.1,12.6,84.7,8.1,0.8,1.9,1,3.5,22.2,71677,77.1,18.3,4.4,0.2,5.7,3,2,9049,22855,30707,32377,9.5,24.1,32.3,34.1,30075,19,48937,607.54,257.755867926392
"01083","AL","Limestone",0.732,0.237,39400,28824,9340,0.704,0.277,48754,34337,13510,34.81185586,-86.98310072,3108,34,91695,45889,45806,5.8,77.2,13.1,0.7,1.2,0,68544,52831,2263,26685,1095,14.8,20,36.1,15.5,21.5,11.3,15.7,88.3,7.5,0.1,0.5,0.8,2.8,25.7,38944,77.3,16.3,6.2,0.2,7.1,2,2,10123,19463,18341,16367,15.7,30.3,28.5,25.5,10633,11.4,64863,559.94,163.758616994678
"01085","AL","Lowndes",0.262,0.731,6676,1751,4882,0.269,0.727,6830,1835,4968,32.1597283,-86.65158371,728,29,10362,4896,5466,0.7,24.3,74.4,0.1,0,0,7973,29785,4076,18976,2109,30.2,48.4,23,17.4,21.6,11.5,26.5,84.4,11.1,0.4,0.3,1.9,1.8,30.3,3533,79.3,16.4,3.4,0.9,11.2,2,2,1588,2722,1750,996,22.5,38.6,24.8,14.1,2474,25.1,33973,715.91,14.4738863823665
"01087","AL","Macon",0.159,0.827,8748,1394,7237,0.177,0.815,8697,1539,7084,32.38759944,-85.69267724,565,21,19358,8933,10425,1.6,15.5,81.5,0.2,0.2,0,15760,32308,2946,19564,1121,25.9,39.3,29.4,24,19.5,7.6,19.6,79.3,10.6,1,6.2,1.4,1.6,22.5,7348,77.7,17.3,4.8,0.2,14.5,6,6,2215,3658,3752,2510,18.3,30.1,30.9,20.7,5031,30.2,32495,608.89,31.792277751318
"01089","AL","Madison",0.559,0.392,159473,89199,62435,0.528,0.448,193955,102395,86885,34.76327133,-86.55069633,9787,101,353213,172568,180645,4.7,65.1,24,0.6,2.5,0.1,265022,61318,1430,34232,709,13.6,20,46.3,15.2,21.6,6.4,10.5,87.7,6.3,0.2,0.8,1.5,3.4,21.3,169756,76.3,19,4.5,0.2,6.5,2,2,21617,50768,69750,101650,8.9,20.8,28.6,41.7,42667,11.9,63755,801.59,440.640477051859
"01091","AL","Marengo",0.477,0.512,10948,5224,5607,0.49,0.503,10882,5337,5476,32.24767634,-87.78796182,1066,23,19743,9235,10508,0.4,45.1,54.1,0.1,0,0,15131,32255,3045,22996,3092,25.6,36.5,29.6,17.6,20.5,11.4,20.9,88,5.7,0,1.2,2.3,2.8,25.5,6645,77.6,17.1,4.5,0.8,12.8,7,11,2192,5378,3869,2084,16.2,39.8,28.6,15.4,4499,24,37733,976.88,20.2102612398657
"01093","AL","Marion",0.873,0.111,12912,11273,1432,0.884,0.106,13786,12190,1457,34.13697363,-87.88704173,1127,31,30058,14880,15178,2.5,91.9,3.2,0.4,0.3,0,23525,35719,2063,21835,1411,17.6,24.1,25.6,16.4,23.7,11.6,22.8,85.3,10.1,0,0.5,1.6,2.4,23.2,11899,77.6,15.8,6.2,0.4,5.5,7,11,4343,7435,6770,2806,20.3,34.8,31.7,13.1,5844,20.2,37887,742.29,40.4936076196635
"01095","AL","Marshall",0.836,0.141,34965,29217,4913,0.838,0.149,39492,33094,5880,34.36975964,-86.30486727,4570,52,94738,46771,47967,13.3,81.8,2.2,0.5,0.6,0.1,65777,41104,1311,22710,717,21,34.1,28.3,15.6,22.1,13.1,20.9,84.8,10.8,0.3,1.3,0.4,2.4,23.9,38456,79.2,13.5,7.2,0.2,6.5,4,5,12151,19818,19442,12233,19.1,31.1,30.5,19.2,17341,18.3,46233,565.84,167.428955181677
"01097","AL","Mobile",0.557,0.419,163387,91087,68429,0.553,0.433,181783,100605,78754,30.78472347,-88.20842409,17298,322,414328,197968,216360,2.8,57.5,35.2,0.6,1.9,0,309967,45802,1034,24347,428,19.3,29.3,32.3,17.7,25.5,9.9,14.7,86.1,7.4,0.5,1.1,0.8,4.1,24.8,173195,82,13.1,4.6,0.2,7.5,2,2,38247,92986,82763,63703,13.8,33.5,29.8,22.9,84539,20.8,43598,1229.44,337.005465903175
"01099","AL","Monroe",0.567,0.423,10185,5771,4310,0.577,0.417,10620,6129,4425,31.56729412,-87.36995001,668,10,21745,10355,11390,1.3,54.5,40.8,1.3,0.5,0,16664,26036,3726,17264,1295,33.7,43.5,28.7,18.5,20.1,14.2,18.5,91.1,3.6,0.3,1.2,1.1,2.7,24.7,6154,75.9,18.9,5.2,0,21.6,7,11,2409,6805,3464,2078,16.3,46.1,23.5,14.1,4560,21.9,39556,1025.68,21.2005693783636
"01101","AL","Montgomery",0.359,0.62,94572,33928,58669,0.336,0.651,98476,33122,64065,32.2206831,-86.20969272,10702,210,227120,107470,119650,3.4,35.2,57.1,0.1,2.4,0,167305,46545,1309,26712,610,20.8,32.1,36.8,18.7,24.5,5.6,14.4,84.8,9,0.7,1.4,0.7,3.4,20.3,100874,73.7,21.8,4.4,0.1,7.6,2,2,21646,38289,41976,48131,14.4,25.5,28,32.1,43567,20.1,49640,784.25,289.601530124323
"01103","AL","Morgan",0.748,0.224,49991,37392,11216,0.739,0.246,53482,39504,13159,34.45500589,-86.85475946,4523,36,119157,58761,60396,8,76.4,12.3,0.5,0.7,0,88176,47529,1678,25013,822,16.6,24.6,30.3,16.2,23.5,10.9,19,89.7,7.1,0.1,0.8,0.8,1.5,24.1,50611,81.9,12.8,5,0.3,6.5,3,2,13706,24350,26356,17849,16.7,29.6,32,21.7,15419,13.2,52797,579.34,205.677149860186
"01105","AL","Perry",0.267,0.727,5255,1403,3823,0.256,0.738,5215,1336,3849,32.64048341,-87.29770589,606,6,9680,4630,5050,0.7,29.4,69.6,0.1,0.2,0,7492,22973,3833,13449,1725,41.9,60.8,23.4,21.9,27.3,5.1,22.3,84.7,8.8,0,2,4.3,0.2,26.1,2478,77,19.3,3.8,0,11.8,8,4,1275,2293,1334,913,21.9,39.4,22.9,15.7,2943,35.3,26814,719.66,13.4507962093211
"01107","AL","Pickens",0.574,0.418,9494,5454,3972,0.579,0.416,9659,5590,4017,33.28094866,-88.08818103,929,18,20170,9601,10569,4.1,54.1,40.5,0.1,0.1,0,15585,36220,2410,20089,1105,22.9,34.8,22.6,17.4,22.4,12.7,24.9,82.6,10.6,0.9,1.6,0.3,4,29.5,6903,77,18.1,4.6,0.3,12.2,3,2,2829,5352,4425,1959,19.4,36.7,30.4,13.5,4177,23.1,37586,881.41,22.8837884752839
"01109","AL","Pike",0.59,0.387,13025,7681,5039,0.581,0.407,13796,8020,5613,31.80396383,-85.9408295,1385,14,33287,15897,17390,0.8,56.4,37.9,0.6,2.2,0,25869,35684,2430,20808,1650,26.3,34.4,31.5,16.2,24.4,8.9,18.9,84.6,7.9,0,2.2,0.8,4.6,20.4,14352,76.1,18.2,5.6,0.2,8.7,6,5,3660,6405,4657,4536,19,33.3,24.2,23.6,7315,23.6,37259,672.09,49.5275930306953
"01111","AL","Randolph",0.76,0.226,10130,7697,2290,0.79,0.204,10824,8548,2203,33.29526734,-85.45708831,865,16,22530,10998,11532,3,75.3,19.4,0.2,0.2,0.2,17343,39485,3413,20983,1532,18.7,29.7,23.4,13.4,21.1,12.8,29.3,85.5,9.1,0.1,0.4,1,4,26.3,8565,79.4,12.1,8.3,0.1,5.8,6,4,3340,5719,4329,2350,21.2,36.3,27.5,14.9,4375,19.7,40546,580.55,38.8080268710705
"01113","AL","Russell",0.481,0.5,19136,9210,9577,0.464,0.525,21108,9796,11078,32.28725256,-85.18415324,2007,3,58480,28424,30056,5.2,47.8,42.4,0.4,0.7,0.2,42923,38988,2253,21279,873,20.9,29.2,28.7,20.2,25.2,9.4,16.4,86,8.5,0.3,1.4,1.1,2.8,24.1,22959,76.1,20,3.8,0.1,9.7,2,2,6495,12583,13434,6438,16.7,32.3,34.5,16.5,12384,21.7,39104,641.14,91.212527685061
"01115","AL","St. Clair",0.832,0.146,37937,31579,5550,0.814,0.174,44346,36119,7698,33.71902176,-86.31029372,3240,43,86937,43469,43468,2.3,86.2,9.3,0.2,0.8,0,66069,53483,2225,24686,787,13.7,17,28.9,15.7,25.7,12.4,17.2,86.5,8.6,0.1,0.6,1.3,2.9,29.7,38522,83.2,11.1,5.5,0.2,5.8,1,1,9255,21865,19587,9991,15.2,36,32.3,16.5,10432,12,57284,631.9,137.580313340718
"01117","AL","Shelby",0.734,0.231,99208,72846,22927,0.694,0.289,114439,79428,33036,33.26879845,-86.66232561,7788,70,208721,101420,107301,5.8,78.5,11.7,0.2,1.9,0,151940,74063,1255,35330,712,8.3,10.1,44.3,13.7,26.8,7.4,7.7,86.2,7.3,0.1,0.7,0.8,4.9,28,104093,82.2,12.7,4.9,0.3,4.3,1,1,11258,29106,42634,60424,7.8,20.3,29.7,42.1,16916,8,75663,784.93,265.910335953525
"01119","AL","Sumter",0.247,0.742,6391,1581,4739,0.254,0.738,6282,1598,4639,32.59117397,-88.19916205,488,21,13084,6033,7051,0.3,24.6,70.7,0.5,3,0,10220,21663,1677,14739,1110,36,47.4,25.5,26.9,22.6,4.9,20.1,87.4,7.3,0.3,3.1,0.1,1.8,26.1,4353,73.4,23.6,3,0,13.4,8,6,1238,2969,1936,1715,15.8,37.8,24.6,21.8,4076,34.7,27859,903.89,14.4752126918098
"01121","AL","Talladega",0.62,0.365,33218,20596,12108,0.624,0.368,35591,22210,13092,33.37823223,-86.16886178,2808,38,80888,39140,41748,2.2,63.1,32.1,0.3,0.6,0,62314,39219,2277,21382,723,19.3,28.8,28.6,16.3,22.2,10.4,22.5,83.7,10.3,0.5,1.6,1.2,2.6,24.8,30937,79,15.9,4.9,0.3,10,4,3,10671,19607,17827,8017,19,34.9,31.8,14.3,14825,19.3,41630,736.78,109.785824805234
"01123","AL","Tallapoosa",0.701,0.285,18504,12967,5271,0.714,0.278,20888,14905,5815,32.86698258,-85.79833053,1403,87,40756,19616,21140,2.4,68.9,27.2,0.4,0.4,0,31773,42181,2590,22430,862,21.2,35.9,28.3,15.1,21,11.7,23.9,85,10.1,0.1,0.9,1,2.9,25.2,15317,81.2,13.8,4.7,0.3,9.2,6,6,5581,9402,8355,5244,19.5,32.9,29.2,18.3,7839,19.7,42205,716.52,56.8804778652375
"01125","AL","Tuscaloosa",0.584,0.389,81708,47701,31746,0.568,0.418,89760,50961,37514,33.28726072,-87.52556818,10792,145,204424,98725,105699,3.5,62.4,31.2,0.1,1.5,0,156404,50513,1043,24895,499,17.3,21.4,35.8,17.5,20.9,8.7,17.2,85.6,8.5,0.5,1.5,1,3.1,22.3,90941,77.4,18.5,4,0.1,6.7,3,2,14748,38097,36040,38669,11.6,29.9,28.3,30.3,33330,16.8,52557,1321.76,154.660452729694
"01127","AL","Walker",0.828,0.153,29243,24208,4486,0.834,0.155,31106,25947,4826,33.80270512,-87.30027177,2966,95,64927,31709,33218,2.4,89.4,6,0.1,0.5,0,49884,38872,1774,21217,778,21.5,31.4,26.3,17.7,23.4,14.3,18.3,85.8,10.5,0.3,1.1,0.9,1.4,29.2,24280,79.9,14.3,5.7,0.1,10,1,1,8606,16685,14479,5204,19.1,37.1,32.2,11.6,11231,17.9,45434,791.19,82.0624628723821
"01129","AL","Washington",0.71,0.279,8492,6031,2366,0.74,0.254,8861,6554,2253,31.4092794,-88.20689944,774,12,16746,8342,8404,0.5,65.1,24.6,7.5,0.9,0,12796,42185,3300,23239,4545,22,34.3,20.6,15.7,21.9,19.3,22.4,83.2,13.5,0,0.2,1.3,1.8,35.2,5710,79,15.6,5.2,0.3,11,8,7,2243,4954,2996,1276,19.6,43.2,26.1,11.1,2846,17.6,44424,1080.21,15.5025411725498
"01131","AL","Wilcox",0.285,0.71,6095,1737,4329,0.31,0.686,5884,1826,4036,31.98773215,-87.30891118,576,12,10919,5096,5823,0.5,26.9,72.1,0.1,0,0,8218,27012,3249,15774,1135,31.9,41.9,24.4,21,19,7.1,28.6,88.8,7.5,0,1,0.2,2.4,25,2901,76.4,18.9,4.7,0,17.2,9,10,1662,2903,1738,901,23.1,40.3,24.1,12.5,3504,33.4,25385,888.5,12.2892515475521
"01133","AL","Winston",0.9,0.085,10255,9225,871,0.904,0.086,11273,10187,974,34.15030532,-87.37325922,981,13,23968,11850,12118,3,94.1,0.5,0.3,0.3,0,18713,35362,2755,20580,1442,18.7,29.2,23.3,15.1,22.1,12.2,27.2,82.6,12.5,0,0.7,1.8,2.3,27.8,8902,75.8,14.5,9.6,0.1,9.4,6,4,3755,6420,4683,2326,21.9,37.4,27.3,13.5,4338,18.6,41156,612.98,39.1007863225554
"04001","AZ","Apache",0.285,0.654,18659,5315,12196,0.327,0.661,34397,11240,22730,35.39465006,-109.4892383,4003,171,71602,35355,36247,6.1,18.5,0.5,72.8,0.3,0.1,50359,32360,1213,13865,370,35.9,45.3,29.7,25.4,20.6,11.5,12.8,78,8.9,1.2,4.6,1.2,6.2,26.7,18197,52.7,42.7,4.4,0.1,14.1,6,6,9085,14708,15444,5189,20.4,33.1,34.8,11.7,26435,37.3,33652,11197.52,6.3944516285749
"04003","AZ","Cochise",0.58,0.354,43147,25036,15291,0.582,0.399,57672,33580,22997,31.87934684,-109.7516088,2205,75,126516,64094,62422,35,55.7,3.6,0.9,1.8,0.4,92064,47847,1539,24896,602,18.1,25.9,34.4,24.3,24.1,10.1,7.2,79.1,10.3,0.7,2.8,2.7,4.4,20.5,43404,63.6,29.9,6.1,0.4,7.6,3,2,11215,20560,35576,20116,12.8,23.5,40.7,23,18273,15.1,49164,6165.69,20.5193579307425
"04005","AZ","Coconino",0.369,0.563,44929,16573,25308,0.37,0.61,73174,27043,44609,35.83883429,-111.7707178,5405,149,138639,68264,70375,13.9,54.3,1.2,25.8,1.8,0.1,105097,53523,2500,25722,1041,21,23.2,36.5,22.7,22.5,8.4,9.9,70,11.4,1.5,8.6,3.8,4.8,18.4,65283,71.5,23.5,4.7,0.2,8.3,3,2,8515,17604,26746,29254,10.4,21.4,32.6,35.6,20964,15.9,60187,18618.89,7.44614743413813
"04007","AZ","Gila",0.639,0.315,21398,13672,6746,0.664,0.323,27662,18377,8943,33.80190085,-110.8132779,1989,72,53145,26284,26861,18.6,62.8,0.4,15.6,0.9,0,41292,41179,1678,22433,944,21.9,36.4,31.6,22.8,21.4,15.3,8.9,78.2,12.8,0.1,2.8,1.1,5,18.7,18216,71,23.1,5.7,0.2,11.7,4,3,5718,11144,14867,7226,14.7,28.6,38.2,18.5,10804,20.4,43585,4757.93,11.1697734098652
"04009","AZ","Graham",0.672,0.276,11939,8025,3301,0.717,0.269,14993,10747,4034,32.93166885,-109.8882178,1281,29,37700,20233,17467,32.5,51.2,1.8,12.6,0.7,0.2,26382,48173,2637,17874,895,21.4,28.7,28.3,21.1,23.7,15.7,11.3,76.8,15.1,1.1,2.1,1.7,3.3,20.9,12412,72.7,23.3,3.9,0.2,12.2,7,8,3379,7028,9526,3598,14.4,29.9,40.5,15.3,7118,20.2,50157,4622.6,8.15558343789209
"04011","AZ","Greenlee",0.583,0.337,3243,1892,1092,0.66,0.321,3685,2433,1182,33.21498827,-109.2405279,104,1,9368,4997,4371,46.4,47.6,2,3.6,0.4,0,6499,56298,8257,24935,2053,11.5,15.7,24,16.4,14,28.5,17.1,85.8,9.6,0,1.7,0.8,2.1,17.8,3675,82.8,13,4,0.2,7.6,7,9,658,2155,2433,709,11,36.2,40.9,11.9,985,10.5,65818,1843.13,5.08265830408056
"04012","AZ","La Paz",0.686,0.267,4931,3381,1318,0.688,0.3,7458,5129,2236,33.72854224,-113.9810029,628,17,20477,10530,9947,26.3,58.7,0.8,11.1,0.8,0.2,15702,36479,4789,21707,1480,19.7,38.1,26.4,26.8,18.4,18.2,10.1,70.5,9.3,0.6,8.2,3.2,8.3,12.9,6474,67.7,25.6,6.7,0,9.5,6,4,3606,5248,5084,1972,22.7,33,32,12.4,4921,23.7,37350,4499.63,4.55081862286455
"04013","AZ","Maricopa",0.491,0.457,1201934,590465,549040,0.482,0.503,2063663,993691,1038364,33.34835867,-112.4918154,159781,3606,4155501,2055464,2100037,30.6,56.3,5.1,1.5,3.9,0.2,2778337,58580,350,30186,163,15.7,22.5,37.4,18.1,26.7,8.4,9.5,76.4,10.9,2.2,1.5,2.5,6.4,25.8,1929015,82.8,11.1,5.9,0.1,6,1,1,354513,634810,923098,899070,12.6,22.6,32.8,32,535183,12.3,65234,9200.14,451.678017943205
"04015","AZ","Mohave",0.737,0.222,74189,54656,16485,0.75,0.237,104667,78534,24831,35.70471703,-113.7577902,4453,234,204691,103175,101516,15.9,78,1,2.1,1.2,0.1,160544,41567,796,23527,630,18.6,27.2,24.3,25.4,26.8,10.9,12.7,79.9,12.6,0.9,1.5,2.1,3.1,20.4,69774,78.6,14.1,7.1,0.2,10.1,3,2,22957,54288,58539,20104,14.7,34.8,37.6,12.9,34411,16.8,45129,13311.08,15.3774900308615
"04017","AZ","Navajo",0.513,0.434,35409,18165,15362,0.534,0.452,51767,27657,23383,35.3997715,-110.3218983,6538,241,107902,54037,53865,11.2,41.6,0.7,43.2,0.6,0.1,76593,38798,1774,17685,626,29.1,38.6,29.3,24.7,22.8,11.7,11.5,73.1,11.9,1.1,4.9,2.4,6.6,21.6,33186,62.1,31.9,5.8,0.2,16.3,4,5,11963,20957,25708,11025,17.2,30.1,36.9,15.8,30876,28.5,40650,9950.42,10.8439643753731
"04019","AZ","Pima",0.408,0.542,360762,147019,195649,0.397,0.588,511127,202928,300743,32.0971334,-111.7890033,28824,641,1007257,495714,511543,36.6,52.6,3.2,2.4,2.6,0.1,726019,48676,534,27323,309,18.3,25.8,36.4,21.5,24.9,8.7,8.5,76.5,10,2.7,2.3,3.6,4.8,24.5,433478,75.7,17.6,6.5,0.2,8.4,2,2,79230,152408,230498,216291,11.7,22.5,34,31.9,164927,16.2,53395,9187.04,109.638904369634
"04021","AZ","Pinal",0.574,0.381,93805,53857,35737,0.577,0.405,185398,106966,75093,32.90525627,-111.3449483,12174,228,405537,211665,193872,29.6,57.4,4.3,4.3,1.6,0.3,286075,52628,891,22944,448,15.5,22,29.4,22.8,25.5,10.5,11.8,78.8,11.7,0.2,1.7,2,5.5,31,144930,77.2,16.9,5.7,0.2,7.8,1,1,41961,85546,105949,54794,14.6,29.7,36.8,19,54399,12.9,58848,5365.61,75.5807820546033
"04023","AZ","Santa Cruz",0.245,0.716,14926,3650,10684,0.317,0.672,19556,6194,13138,31.52508998,-110.8479088,3065,65,46358,22229,24129,83.4,15,0.3,0.2,0.8,0,27410,39630,2778,19482,1456,21.8,29.4,25.6,20.8,29.7,10.9,13,83.9,7.8,0.3,1.6,1.7,4.7,23.5,17421,70.8,20,8.9,0.2,8.7,4,5,7127,7957,8006,6138,24.4,27.2,27.4,21,11287,24.4,40545,1236.92,37.4785758173528
"04025","AZ","Yavapai",0.634,0.32,92780,58862,29705,0.639,0.346,143221,91527,49602,34.59933926,-112.5538588,3029,91,220972,108100,112872,14.3,80.9,0.5,1.5,0.9,0,176240,48259,1287,27504,633,14.7,20.1,31.9,22.7,24.5,11.1,9.8,75.2,11.8,0.3,3.1,2.2,7.3,23.2,83535,76.4,14.2,9.3,0.1,7.3,3,2,16623,44214,67706,43270,9.7,25.7,39.4,25.2,30060,13.2,48758,8123.5,27.2015756755093
"04027","AZ","Yuma",0.505,0.45,40759,20586,18336,0.523,0.461,68427,35766,31562,32.76895712,-113.9066674,13994,358,204281,104914,99367,62.9,31.8,1.8,0.9,1.1,0.1,121564,43253,1376,20600,428,19.7,28.2,24.9,23,22.8,17.4,12,80.7,10.4,1.7,2.4,1.8,3,19.6,74891,74.4,20.8,4.6,0.2,10.9,3,2,36452,33924,41128,19315,27.9,25.9,31.4,14.8,39648,19.5,44116,5513.99,37.0477639603989
"05001","AR","Arkansas",0.616,0.312,6211,3825,1939,0.684,0.289,6284,4301,1813,34.29145151,-91.37277296,726,17,18352,8785,9567,3,70.2,26,0,0,0,13982,38532,2759,23766,1718,20.7,28.6,27.7,15.5,23.6,8.5,24.7,80.8,11.5,0,3.1,1.5,3.1,14.6,7920,75.7,15.5,8,0.9,8.5,6,6,2121,4774,3646,1937,17,38.3,29.2,15.5,3120,17.9,43887,988.77,18.5604336701154
"05003","AR","Ashley",0.66,0.298,8083,5338,2408,0.7,0.268,7926,5548,2125,33.19153461,-91.7698471,573,11,20771,10126,10645,5.2,68,25.6,0.2,0,0,15544,36407,2317,20703,1350,21.3,32.4,27.5,16.8,18.9,13.7,23,85.1,7.8,0.2,2.3,3,1.6,20.4,7905,78.8,18.1,2.7,0.4,9.9,7,11,2465,5563,4066,1838,17.7,39.9,29.2,13.2,3876,19.6,41127,925.35,22.4466418112066
"05005","AR","Baxter",0.743,0.211,19730,14655,4163,0.754,0.221,20968,15810,4625,36.28784385,-92.33782872,776,11,41093,19857,21236,2.1,95.1,0.2,0.5,0.4,0,33597,40072,1602,24737,1307,12.6,17.6,30.1,19,22.9,10.5,17.6,84.1,9.2,0.4,2.4,0.7,3.3,16.4,15926,79.5,11.7,8.6,0.2,5.8,7,8,3747,11090,11007,5802,11.8,35,34.8,18.3,6216,15.1,39686,554.28,74.1376199754637
"05007","AR","Benton",0.629,0.289,96556,60751,27894,0.618,0.352,119166,73605,41894,36.33644656,-94.25680817,8619,125,251823,124632,127191,16.3,74.2,1.6,1.4,3.7,0.5,165781,61271,1146,30611,679,10.5,14.5,37.6,13.4,26,8.7,14.4,85.3,8.5,0.1,1.6,0.8,3.7,19.9,119813,86,8.2,5.7,0.1,3.1,2,2,20120,49182,44756,54780,11.9,29.1,26.5,32.4,23290,8.6,68978,847.36,297.185375755287
"05009","AR","Boone",0.759,0.182,16098,12225,2925,0.798,0.179,17103,13644,3061,36.3084504,-93.09374925,1099,36,37212,18198,19014,2.3,94.2,0.4,1.1,0.5,0.1,28675,40727,1497,22288,1054,15.8,23.7,29.8,19.5,24.8,9.7,16.2,82.7,11.1,0.1,1,1.3,3.8,19.4,15773,78.4,13.1,8.2,0.3,6.1,7,8,3375,8779,9652,4145,13,33.8,37.2,16,5472,14.8,44482,590.23,63.0466089490538
"05011","AR","Bradley",0.592,0.361,3652,2163,1317,0.64,0.332,3644,2332,1208,33.46755808,-92.15980837,373,8,10994,5262,5732,14.8,55.9,29.1,0,0,0,7849,36310,3985,21575,1320,26.4,42.2,25.9,16.6,13.8,18.4,25.3,82.2,9.6,0,1,2.8,4.5,22,4112,74,19,7,0,9.4,7,9,1352,3120,1880,1142,18,41.6,25.1,15.2,2329,21.7,37729,649.23,16.9339063197942
"05013","AR","Calhoun",0.686,0.281,2264,1554,636,0.751,0.218,2143,1609,467,33.55598792,-92.49974403,59,0,5194,2693,2501,3.9,72.6,21.9,0.1,0.2,0.2,4179,37225,5419,22866,1842,19.6,34.3,24.5,13.8,15.8,16.3,29.6,87.4,5.4,0.5,1.8,1.7,3.2,24.4,2215,73.5,23.7,2.8,0,5.7,9,8,649,1636,1013,452,17.3,43.6,27,12.1,800,15.7,44969,628.58,8.26306913996627
"05015","AR","Carroll",0.631,0.311,10736,6773,3334,0.632,0.339,11639,7352,3941,36.3403856,-93.54270261,1049,19,27782,13634,14148,14.8,80.6,0.5,0.6,1,0.6,20196,39686,2195,21754,1210,15.7,23.5,27.5,18.5,20.1,11.2,22.7,80.2,10.5,0,3.8,0.5,5,19.8,11400,77.6,13.2,9.1,0.1,5.1,6,6,2788,6788,6055,4015,14.2,34.6,30.8,20.4,4499,16.1,45023,630.09,44.0921138250091
"05017","AR","Chicot",0.411,0.563,4176,1716,2350,0.428,0.55,4093,1750,2252,33.26458973,-91.29539209,1056,23,11008,5401,5607,5.2,39.1,54.1,0.4,0.5,0,8386,32412,3098,20560,2755,29.4,40.7,30.1,19.9,23.9,8.9,17.2,84.7,6.4,1.3,1.7,4.1,1.7,21.8,3659,71.9,24.7,3.4,0,10.1,7,9,1451,2954,2012,1110,19.3,39.2,26.7,14.7,3039,31.4,31787,644.3,17.0852087536862
"05019","AR","Clark",0.517,0.424,8505,4398,3606,0.551,0.408,8358,4605,3413,34.04613432,-93.17484713,530,5,22495,10697,11798,4.6,69.1,23.8,0.3,0.7,0,17814,37144,2739,20382,1109,21.5,28.5,33.6,20.6,23.7,7.8,14.3,78.8,12.6,0.4,3.7,0.7,3.8,21.3,10291,75.8,18.7,5.3,0.2,4.5,7,8,1422,4021,4090,3642,10.8,30.5,31,27.6,3838,19.9,45408,866.07,25.9736510905585
"05021","AR","Clay",0.63,0.333,5998,3779,1999,0.789,0.185,5178,4084,959,36.36826212,-90.4148172,517,13,15190,7421,7769,1.9,95.8,0.7,0.5,0,0,11802,32219,2195,19171,1143,22.3,32.4,22.3,18.3,24,12.1,23.3,84.9,9.6,0,3.1,0.5,1.9,23.3,6234,80.6,11.5,7.9,0,5.3,7,9,2047,4363,2944,1228,19.3,41.2,27.8,11.6,3035,20.7,37687,639.47,23.7540463196084
"05023","AR","Cleburne",0.783,0.174,12081,9454,2101,0.816,0.156,12617,10292,1962,35.53864922,-92.02640019,500,16,25361,12494,12867,2.5,94.8,0.6,0.7,0.8,0,20196,42312,2518,26189,1635,15.4,23.2,27.7,18.8,20.5,13.2,19.8,80.9,10.9,0,1.4,1.5,5.2,26.1,10142,77.3,13.4,9.1,0.3,5.5,6,6,2865,7630,5464,2796,15.3,40.7,29.1,14.9,3573,14.6,44902,553.69,45.8036085174014
"05025","AR","Cleveland",0.734,0.216,3352,2460,723,0.796,0.181,3588,2857,649,33.89723187,-92.18537045,257,13,8332,4189,4143,1.8,84.7,11,0.4,0.1,0,6341,44840,3699,23171,1257,19.3,31.2,30.1,13.7,20.8,17.5,18,85,8.1,0.5,3.1,2.3,1,29.6,3362,73.1,22.6,4.3,0,6.6,3,2,649,2689,1438,920,11.4,47.2,25.2,16.2,1232,15.5,47600,597.78,13.9382381478136
"05027","AR","Columbia",0.614,0.353,8887,5456,3140,0.64,0.325,8550,5469,2781,33.21230701,-93.22642793,757,21,23992,11498,12494,2.5,59.4,34.9,0.3,1.1,0,18421,37072,3441,20296,1233,25.1,34.8,28.9,18.1,23.4,10.7,18.9,86.6,6.8,0.1,4.3,0.3,2,17.3,9877,77.5,17.2,5.2,0.1,9.5,7,8,2210,5880,3602,3028,15,39.9,24.5,20.6,4799,22.4,40909,766.05,31.3191044970955
"05029","AR","Conway",0.612,0.335,7921,4844,2655,0.656,0.3,8641,5672,2593,35.26205537,-92.70506566,361,4,20954,10313,10641,3.8,81.8,11,0.3,0.1,0,15859,39638,3317,22365,1293,18.5,27.8,26.3,16.6,24.5,17.5,15,81.7,12.4,0.2,1.1,1.4,3.2,25.8,8377,79.4,14.2,6.3,0.1,7.1,6,6,2059,6333,3871,2329,14.1,43.4,26.5,16,3693,17.9,44565,552.25,37.9429606156632
"05031","AR","Craighead",0.644,0.296,35404,22798,10474,0.664,0.309,38364,25482,11854,35.83018283,-90.63235729,4938,48,104246,50774,53472,4.9,77.3,13.4,0.2,1.1,0.1,75467,45672,1662,25594,1217,18.3,25.1,34.3,17.1,22.4,9.6,16.5,82.2,11.3,0.2,2.3,0.7,3.3,18.5,48216,80.1,13.4,6.2,0.2,6,3,2,7370,23120,19413,17809,10.9,34.1,28.7,26.3,18768,17.9,45615,707.21,147.404589867225
"05033","AR","Crawford",0.743,0.2,22403,16655,4476,0.773,0.205,24025,18566,4936,35.58928601,-94.2446814,2189,30,62119,30587,31532,7.3,85,1.3,1.6,1.8,0,45393,43504,1870,22104,945,16.6,24.3,29.7,16.4,23.7,10.6,19.6,86.9,8.5,0.2,2.1,0.3,2,22.4,25751,82.6,13.6,3.7,0.1,6.2,2,2,6227,15708,13588,6432,14.8,37.4,32.4,15.3,10027,16,47363,593.09,104.73789812676
"05035","AR","Crittenden",0.437,0.526,15894,6953,8368,0.45,0.518,16086,7244,8325,35.21247318,-90.30839406,2532,53,49278,23303,25975,2.4,43.2,48.9,0.3,0.7,0.1,35076,38558,3004,20721,665,23.5,37,29.4,18.4,23.1,10.2,18.8,82.1,10.1,0.3,1.7,2.4,3.4,19.9,20282,76.9,16.5,6.5,0.2,8.4,1,1,5461,10890,9132,5607,17.6,35,29.4,18,9056,19.2,42606,609.76,80.8154027814222
"05037","AR","Cross",0.667,0.291,6863,4577,1995,0.713,0.255,6911,4928,1759,35.29631396,-90.77185818,616,22,17164,8323,8841,1.9,73,22.7,0,0.1,0,12986,41081,2555,22894,2663,18,27.4,26,16,25.5,13.4,19.1,79.9,12.8,0.1,1.9,1.7,3.5,23.9,7242,72.3,20.2,6.9,0.5,6.8,6,4,1974,4768,2964,1771,17.2,41.5,25.8,15.4,2940,18,41214,616.38,27.846458353613
"05039","AR","Dallas",0.544,0.421,2769,1507,1165,0.594,0.364,2649,1573,963,33.97042763,-92.65167437,188,6,7585,3639,3946,3.1,53.2,40,0.4,1.6,0.2,5772,35794,4141,18309,1309,13.2,17.4,18.6,22.9,18.9,12.6,26.9,75,15.4,0,5.6,2.2,1.9,27.5,2910,72.2,23.7,3.8,0.3,6.4,6,6,862,2284,1401,721,16.4,43.4,26.6,13.7,1442,21.3,37259,667.39,11.3651687918608
"05041","AR","Desha",0.45,0.524,4252,1915,2227,0.461,0.484,4163,1920,2016,33.83011025,-91.25500948,431,7,12094,5547,6547,5.8,45.7,47.5,0.1,0.1,0,8774,27036,2882,18187,1588,32.6,48.5,27.4,17.7,23.3,17,14.5,85.4,9.3,0.2,1.5,2.1,1.5,19.3,4440,68.6,26.9,4.5,0,12.2,6,6,1677,3487,1772,984,21.2,44,22.4,12.4,2780,24.3,36132,768.15,15.7443207706828
"05043","AR","Drew",0.602,0.359,6590,3967,2364,0.631,0.35,6879,4338,2408,33.59035001,-91.71777921,440,7,18620,9090,9530,3.1,66.9,28.8,0.1,0.2,0,14372,36092,2533,20300,1737,24.4,29.4,34.2,17.9,25.2,9,13.7,79,15.1,0,2.9,1.3,1.7,21.7,7629,71,21.9,7,0,9,6,6,1744,4150,3414,2420,14.9,35.4,29.1,20.6,3391,19.5,42494,828.36,22.4781495967937
"05045","AR","Faulkner",0.618,0.308,47196,29170,14525,0.633,0.337,54264,34338,18267,35.14719007,-92.33717519,3543,39,121282,59387,61895,4,80.6,11.4,0.3,1.3,0.1,90208,50316,2016,25240,752,16.3,16.6,36,17.4,25.1,10.4,11.1,83.5,9.7,0.1,1.9,1.4,3.4,24,57306,78.3,16,5.6,0.1,5.1,2,2,6483,22846,22986,22472,8.7,30.5,30.7,30,18571,15.4,53882,647.88,187.198246588874
"05047","AR","Franklin",0.744,0.203,6764,5034,1376,0.796,0.182,7125,5675,1299,35.51202821,-93.89299569,575,2,17803,8674,9129,2.9,92.4,1,1.6,0.5,0.1,13611,39472,2697,19988,1169,21.9,31.9,27.5,15.8,23.8,11.5,21.4,81.3,9.7,0.9,2.4,0.6,5.1,26.8,6598,74.1,20,5.6,0.3,6.6,6,6,2106,4844,3701,1423,17.4,40.1,30.7,11.8,3202,18.3,43696,608.86,29.2398909437309
"05049","AR","Fulton",0.727,0.224,4771,3470,1067,0.774,0.202,5098,3944,1031,36.38177105,-91.81729127,348,10,12092,5947,6145,1.3,95.6,0.3,0.9,0,0.1,9543,36051,3683,19674,1460,23,40.3,29.7,18.7,21.7,14.4,15.6,85.2,8.3,1.3,0.7,1.2,3.3,23.3,4132,73.1,17.6,9,0.4,6.9,9,9,1364,3282,3140,1043,15.4,37.2,35.6,11.8,2481,20.6,35630,618.19,19.5603293485822
"05051","AR","Garland",0.64,0.302,40734,26053,12283,0.658,0.318,44193,29065,14043,34.57692074,-93.14921604,2645,70,97994,47269,50725,5.4,82.6,8.1,0.7,0.5,0,76141,41672,1593,25690,1175,19.1,29.9,31.8,20.4,25.6,11.2,11,79.8,12,0.4,1.7,1.2,4.8,21.9,39800,79.2,13.3,7.2,0.2,9,3,2,8243,22357,26033,14335,11.6,31.5,36.7,20.2,19844,20.4,43610,677.78,144.580837439877
"05053","AR","Grant",0.747,0.204,6908,5160,1407,0.829,0.155,8200,6794,1268,34.29017991,-92.42320562,382,4,18076,8829,9247,2.5,93,2.9,0.2,0,0,13759,49968,3977,25814,2380,14.4,17.9,31.4,15.6,21.5,12.6,19,85.3,9.5,0.1,1.1,0.9,3.1,29.7,7561,80.7,13.9,5.1,0.3,8.7,2,2,1065,5517,3625,2287,8.5,44.2,29,18.3,2353,13.1,52050,631.81,28.6098668903626
"05055","AR","Greene",0.735,0.21,14560,10698,3056,0.787,0.19,16066,12651,3045,36.1173546,-90.55832668,1666,20,44197,21806,22391,2.7,93.9,1,0.3,0.3,0.1,33207,45566,3644,22094,954,15.9,23.2,27.8,15.1,22.9,9.8,24.5,86.9,8.8,0.1,1.1,0.9,2.2,20.3,19093,79.2,13.4,7.3,0.1,7,4,5,3767,13130,8074,4734,12.7,44.2,27.2,15.9,7361,16.5,46512,577.7,76.5051064566384
"05057","AR","Hempstead",0.625,0.337,7031,4391,2371,0.653,0.312,6838,4463,2135,33.73325583,-93.66935133,593,5,22154,10380,11774,12.5,55.2,29.5,0.3,0.1,0.4,15466,38701,3965,18817,1282,25.3,37.5,26.9,18.4,18.2,13.2,23.3,82.1,12.2,0.2,1.3,1.1,3.1,19.9,8819,75.4,17.4,6.8,0.4,6.4,6,6,2734,5317,4161,2178,19,36.9,28.9,15.1,4424,20.6,38682,727.52,30.4513965251814
"05059","AR","Hot Spring",0.685,0.263,11909,8153,3137,0.734,0.244,12503,9178,3053,34.31709259,-92.95396325,2297,37,33480,17294,16186,3.4,82.8,10.9,0.3,0.3,0,26167,40626,1975,20868,1583,15.8,19.7,30.4,17.9,22.2,13.8,15.7,84.3,11.8,0.6,1.4,0.5,1.4,26.1,13378,79.3,15.3,5.1,0.4,6.2,6,5,3495,9489,7464,3526,14.6,39.6,31.1,14.7,5844,18.7,47205,615.2,54.4213263979194
"05061","AR","Howard",0.675,0.289,4671,3155,1350,0.697,0.277,4818,3358,1333,34.09007427,-93.9934871,625,14,13472,6582,6890,12,65,20.9,0.2,0.2,0,9391,34851,2771,23627,3388,21,36.3,27.1,13.6,17.3,17.2,24.8,79.6,13.2,1.2,2.5,0.5,3,20.2,5560,77.7,15.9,6.4,0,5.7,6,6,1515,3312,2733,1308,17.1,37.3,30.8,14.7,2271,17.3,40199,588.55,22.8901537677343
"05063","AR","Independence",0.73,0.212,13598,9925,2878,0.775,0.193,14486,11232,2798,35.74242707,-91.57001641,1528,58,37097,18054,19043,6.1,89.2,1.9,0.3,0.7,0,27667,39945,2414,23056,1390,18.5,27.8,29.6,17.1,19.8,13.9,19.6,81.4,12.5,0.2,1.3,1.4,3.2,18.9,15305,78,15.6,6.4,0.1,6,7,8,3577,9016,7804,4754,14.2,35.8,31,18.9,5302,14.5,45596,763.95,48.5594606976896
"05065","AR","Izard",0.742,0.204,5445,4042,1111,0.797,0.176,5792,4615,1019,36.09604046,-91.90847954,673,2,13521,6971,6550,2.1,93.5,1.9,1.1,0.2,0,10934,39135,2916,19737,1101,17.7,29.8,30.3,19.6,22.1,10.2,17.8,77.9,14.5,0,1.9,1.4,4.3,20.5,4615,75.6,16.1,8.1,0.1,9.6,9,10,1511,3825,3393,1397,14.9,37.8,33.5,13.8,2358,18.7,37828,580.58,23.2887801853319
"05067","AR","Jackson",0.633,0.307,5151,3262,1583,0.706,0.268,5076,3583,1360,35.59802983,-91.21494602,907,6,17429,8575,8854,2.7,77.2,16.9,0.2,0,0,13868,32783,2974,19458,1777,25.1,42.4,22.3,18.3,20.7,15.4,23.3,83.4,9.4,0.2,1.6,1.3,4.1,19.1,5700,76,15.8,7.6,0.5,7,6,6,2600,5061,3408,1254,21.1,41.1,27.7,10.2,3732,25.6,36573,633.94,27.4931381518756
"05069","AR","Jefferson",0.357,0.609,25821,9231,15721,0.38,0.595,25030,9500,14882,34.26767081,-91.92619839,4302,102,71373,35154,36219,2,39.6,56.3,0.2,0.8,0,54374,37630,1469,20371,730,24.7,39.2,27.9,20.3,22.5,7.2,22.1,86.9,6.6,0.2,1.7,2.4,2.1,20.9,26874,70,25.7,4.1,0.2,10,3,2,6620,18270,14074,8432,14,38.5,29.7,17.8,13900,22.2,38596,870.75,81.9672695951766
"05071","AR","Johnson",0.668,0.266,9086,6072,2421,0.73,0.241,9402,6867,2262,35.56759135,-93.46036368,1063,8,26155,12977,13178,13.7,80.3,1.6,0.2,1.6,0.1,18153,35758,1574,18757,1144,22.5,31,25.9,15,21,12.7,25.5,77.8,12.3,0.4,1.7,2.3,5.6,20.5,10427,79.2,14.5,6.2,0.1,4.7,7,9,3565,7124,3860,2735,20.6,41.2,22.3,15.8,5761,22.2,39381,659.8,39.6408002424977
"05073","AR","Lafayette",0.615,0.361,2846,1750,1028,0.656,0.313,2679,1757,839,33.24116713,-93.60677071,201,3,7051,3460,3591,1.2,59.3,37.8,0.3,0.4,0,5614,32500,3065,25140,4123,23.8,32.3,26.9,14.7,22,13.9,22.4,82.6,10.1,0.2,2,1.2,3.7,25.1,2580,70.3,20.6,8.2,0.9,8.3,8,7,909,2055,1192,821,18.3,41.3,24,16.5,1498,22.8,35527,528.27,13.3473413216726
"05075","AR","Lawrence",0.715,0.222,5685,4064,1263,0.78,0.184,5857,4569,1080,36.04188196,-91.10867198,884,21,16777,8285,8492,1.3,95.8,0.9,0.5,0.1,0,12943,37603,2540,19422,1091,18.4,21,27.9,18.4,23,12.9,17.9,84,10.4,0.2,3,1.2,1.2,26.1,6448,73.2,19.6,7,0.2,8.2,6,6,1636,4551,3393,1696,14.5,40.4,30.1,15,2776,17.7,40308,587.61,28.5512499787274
"05077","AR","Lee",0.407,0.575,3020,1229,1735,0.452,0.5,2848,1286,1423,34.78498904,-90.78383866,1113,18,9614,5455,4159,1.4,40.7,56.9,0.1,0.1,0,7745,27901,4074,15610,1586,27.3,35.3,20.8,23.9,18.5,16.2,20.7,78.5,15.6,0,2.3,2,1.6,20.8,2842,66.9,23,10.1,0,15.3,7,9,1831,2770,1578,607,27,40.8,23.3,8.9,3098,43,28080,602.62,15.9536689787926
"05079","AR","Lincoln",0.642,0.327,3826,2455,1252,0.704,0.266,3870,2725,1031,33.95317155,-91.74002806,2337,18,13885,8643,5242,3.6,64.6,31.1,0.4,0,0,11170,38873,8291,13142,2035,17.9,22.2,25.6,22.3,19.5,14.2,18.4,83.3,12.5,0,1.3,0.3,2.7,25.1,3359,70.4,24,4.6,1,8.1,3,2,1910,5127,2259,903,18.7,50.3,22.1,8.9,2647,27.5,44951,561.52,24.7275252885026
"05081","AR","Little River",0.683,0.265,5277,3604,1397,0.717,0.237,5178,3714,1226,33.70375665,-94.23468591,489,37,12494,6157,6337,3.3,73.2,20.5,1.3,0,0,9688,36963,4212,23412,2577,18.8,25.4,26.3,13.4,17.9,13.7,28.7,83.9,13.6,0,1.1,0.2,1.2,24.8,4623,76.1,19.8,4.1,0,10.3,3,2,1041,3758,2989,1003,11.8,42.7,34,11.4,1942,16,43559,532.25,23.4739314232034
"05083","AR","Logan",0.725,0.216,7909,5737,1712,0.783,0.188,8222,6438,1544,35.21413234,-93.71951016,617,5,21802,10764,11038,2.9,90.8,2.1,1.1,1.3,0,16641,37982,2324,19708,1124,20.2,29.7,27.5,19.6,18.7,12.9,21.3,81.5,10.4,0.5,1.5,0.8,5.3,25.6,8339,72.2,19.2,8.5,0.1,8.1,6,6,2278,6875,4284,1846,14.9,45,28,12.1,3950,18.6,41471,708.13,30.7881321226328
"05085","AR","Lonoke",0.737,0.209,27007,19902,5638,0.746,0.218,30660,22884,6684,34.75392199,-91.88742357,1877,33,71568,35222,36346,4.3,86.5,6,0.5,0.7,0.1,52084,57290,2075,25184,685,12.3,17.3,34.6,16.6,23.4,11.7,13.7,86.9,7.7,0.2,2,0.7,2.6,27.3,32577,76.8,18.1,4.9,0.2,4.8,2,2,5363,16675,15846,9639,11.3,35.1,33.3,20.3,8651,11.9,56651,770.73,92.8574208866918
"05087","AR","Madison",0.72,0.232,6829,4917,1587,0.77,0.213,7315,5630,1555,36.01038185,-93.72524943,444,6,15907,8005,7902,5.4,90.2,0.1,1,0.4,0.5,11851,42894,3325,23203,2396,17.8,22.6,29.3,14.9,20,14.8,21.1,80.5,12.2,0.3,1.8,1.2,4,31.7,6557,74.8,13.8,11.3,0,4.5,2,2,2242,5037,2382,1375,20.3,45.6,21.6,12.5,3002,18.4,42674,834.26,19.0671972766284
"05089","AR","Marion",0.749,0.203,6778,5077,1377,0.771,0.204,7481,5767,1526,36.26844485,-92.68451899,180,2,16374,8050,8324,2.2,94.7,0.2,1,0.4,0,13400,36113,2636,19200,1117,19.5,30.9,26,21.7,21.1,11.5,19.7,80.8,12.6,0.2,1.8,0.1,4.5,22.1,5353,73.7,14.7,11.6,0,7.7,9,10,1636,4583,4091,2148,13.1,36.8,32.8,17.2,3082,18.7,36581,597.01,27.4266762700792
"05091","AR","Miller",0.702,0.266,16090,11293,4273,0.721,0.257,16506,11907,4235,33.31403423,-93.89285258,1613,21,43760,21581,22179,3.1,69.4,24.4,0.7,0.5,0.1,32903,41862,1885,22227,1044,21,31.7,30.3,18.2,24,9,18.4,86,9.3,0.2,1.3,1.1,2,18.4,18399,77,15.9,7.1,0,8,3,2,4170,10680,9967,4934,14,35.9,33.5,16.6,9228,21.9,42162,625.58,69.9510853927555
"05093","AR","Mississippi",0.534,0.43,13075,6988,5621,0.591,0.37,12287,7262,4542,35.76271485,-90.0519437,2412,69,43534,21030,22504,4,58.7,35.1,0,0.5,0,31420,36417,1718,20378,908,25.6,37.9,22.8,18,22.7,11.1,25.3,82.2,14.5,0.3,0.7,1,1.3,17.8,17270,77.2,16.7,5.9,0.2,11.6,4,3,5305,10630,8066,3521,19.3,38.6,29.3,12.8,10325,25.7,36718,900.57,48.3404954639839
"05095","AR","Monroe",0.504,0.467,2778,1400,1298,0.549,0.407,2815,1545,1146,34.6815935,-91.20540287,230,2,7420,3435,3985,2.5,54.4,40.8,0,0.5,0,5861,31584,3667,20486,1821,28.6,46.6,20.5,23.5,26.2,10.6,19.2,76.9,16.6,0,2.3,0.8,3.3,22,2954,72.4,18.4,9.2,0,9.1,7,9,1168,2199,1205,537,22.9,43,23.6,10.5,1769,26,32922,607.12,12.2216365792595
"05097","AR","Montgomery",0.741,0.212,3471,2573,735,0.787,0.188,3839,3021,722,34.53704874,-93.65824478,188,8,9059,4487,4572,4.1,90.9,0.3,1.8,1,0,7139,35252,3596,21480,1748,18.1,29.4,29.1,18.5,19.3,20.8,12.3,84.9,10.9,0.2,1.4,0.3,2.3,30,3248,67.3,18.8,13.9,0,4.4,8,7,1461,2450,2075,722,21.8,36.5,30.9,10.8,1649,18.8,38318,779.88,11.6158896240447
"05099","AR","Nevada",0.617,0.356,3243,2001,1156,0.635,0.32,3358,2133,1076,33.66340119,-93.30632432,335,14,8528,4444,4084,0.4,63.4,33.4,0.1,1.4,0,6570,36995,5674,18644,1239,23,34,28.9,20.5,15.1,13.8,21.7,85.9,7.8,0.7,1.1,1.9,2.7,29.9,3294,73.2,22.7,4.2,0,4.8,7,9,787,2605,1644,916,13.2,43.8,27.6,15.4,1738,21.3,37626,617.84,13.8029263239674
"05101","AR","Newton",0.766,0.186,3753,2875,699,0.798,0.177,3998,3192,709,35.91947491,-93.21612969,324,20,7898,3979,3919,1.4,94.3,0,1.5,0.5,0,6288,38134,4984,18053,1295,17.8,23.1,27.8,21.1,18.6,16.1,16.5,77.3,11.9,0.7,3.7,1.3,5.1,30.5,3114,59.6,25,15.4,0,4,9,8,994,2338,1468,927,17.4,40.8,25.6,16.2,1340,17.4,36078,820.9,9.62114752101352
"05103","AR","Ouachita",0.539,0.435,9929,5347,4320,0.584,0.378,8993,5253,3395,33.58839816,-92.87795984,401,9,24378,11547,12831,2.1,55.5,40.7,0.2,0.1,0,18675,32136,3003,19780,1125,26,41,30.5,17,20.1,9.8,22.7,86.3,8.6,0.9,1.8,0.8,1.5,22.2,9290,71.4,23.2,5.5,0,8.3,7,8,2412,6958,4675,2671,14.4,41.6,28,16,5410,23.3,37624,732.78,33.2678293621551
"05105","AR","Perry",0.699,0.243,4262,2979,1035,0.752,0.218,4607,3466,1005,34.9459153,-92.94372564,152,2,10320,5116,5204,2.8,92.2,2.1,0.5,0.1,0,7985,46168,3448,21781,1487,17.8,29.1,28.7,18.4,24.1,15.1,13.7,77.3,11.4,0,1.2,0.9,9.2,33.3,3943,73.5,17.1,8.7,0.6,6.5,2,2,1202,2938,2226,858,16.6,40.7,30.8,11.9,1502,14.7,45342,551.4,18.7159956474429
"05107","AR","Phillips",0.352,0.619,6932,2443,4292,0.389,0.579,6155,2393,3561,34.43268455,-90.84800154,781,16,19518,9210,10308,1.7,34.6,62.8,0,0.1,0,14300,26652,1395,17287,1003,33,53.3,25.9,20.3,25.3,10.3,18.2,75.8,17.8,0.1,2.3,2.1,2,18.2,6718,65.7,27.1,7,0.1,15.7,6,3,2665,3709,4236,1729,21.6,30.1,34.3,14,6301,35.4,29945,695.66,28.0568093608947
"05109","AR","Pike",0.791,0.172,3980,3150,684,0.829,0.152,4246,3519,644,34.16250414,-93.65789349,276,1,10893,5415,5478,6.5,87.6,2.8,0.4,0.7,0,8161,36893,2512,20180,1132,17.3,22.8,26.9,17.6,19.1,18.9,17.6,79.5,14,0.4,1.8,2.7,1.7,27.7,4466,72.7,17.8,9.2,0.3,5.1,9,10,1153,2946,2364,1113,15.2,38.9,31.2,14.7,1856,17.8,41534,600.62,18.1362591988279
"05111","AR","Poinsett",0.591,0.352,5332,3149,1878,0.789,0.187,7418,5852,1388,35.57433534,-90.66268713,1203,23,24098,11808,12290,2.8,87.4,5.6,0.2,0.1,0,18241,37487,2704,18361,798,21.4,35.1,24.3,18.9,21.2,15.1,20.5,82.8,11.5,0,1.4,0.6,3.6,24,9492,79.3,13.1,7.5,0.1,5.4,3,2,3161,7228,4289,1643,19.4,44.3,26.3,10.1,5592,23.7,37370,758.39,31.7752080064347
"05113","AR","Polk",0.804,0.147,8215,6606,1210,0.829,0.147,8468,7018,1242,34.48254879,-94.22728802,374,5,20212,9869,10343,6.4,88,0.5,1.1,0.5,0,14939,33870,2290,18735,996,26.6,35.7,28.4,15.7,22.4,15.4,18.1,77,18,0.6,1,0.8,2.5,23,7222,72.6,17.1,10.3,0,8.5,7,11,2166,5275,4789,1872,15.4,37.4,34,13.3,3962,20,39048,857.68,23.5658987034792
"05115","AR","Pope",0.721,0.221,21770,15694,4818,0.74,0.236,24367,18041,5747,35.44871474,-93.03212219,2835,37,63372,31373,31999,8.5,84.7,2.9,0.4,1,0,46772,40668,2212,21650,849,19.8,24.5,30.2,18.3,22,11.2,18.3,84.1,9.2,0.2,1.9,1.8,2.8,18.5,27026,79.5,13.8,6.6,0.1,7.3,5,8,6117,14318,11064,8860,15.2,35.5,27.4,22,9647,16,45788,812.55,77.9915082148791
"05117","AR","Prairie",0.728,0.236,3440,2503,812,0.798,0.186,3465,2764,646,34.83624419,-91.55162157,248,4,8309,4132,4177,0.6,85,13.4,0.4,0,0,6602,41244,2365,22653,1494,16.8,23.4,28.1,15.7,19.5,12.3,24.4,78.7,11.5,0,2.2,2.7,4.9,26.8,3454,75.6,14.7,8.5,1.2,7.6,8,7,1062,2390,1617,903,17.8,40,27.1,15.1,1254,15.8,43245,647.96,12.8233224273103
"05119","AR","Pulaski",0.384,0.56,159486,61182,89377,0.377,0.597,165468,62389,98855,34.77054088,-92.31355101,12467,220,392848,188310,204538,6,53.2,35.9,0.2,2.1,0,287896,48850,1099,29855,583,17.3,26,41.2,16.7,25.4,6.8,10,83.4,9.8,1,1.3,1.3,3.4,20.3,182512,75.7,19.4,4.7,0.2,5.9,2,2,25441,69644,80333,90726,9.6,26.2,30.2,34.1,64312,16.7,49957,759.76,517.068547962514
"05121","AR","Randolph",0.707,0.223,6378,4508,1425,0.787,0.178,6769,5327,1203,36.3415714,-91.02455531,693,26,17514,8664,8850,1.9,95.1,0.9,0.6,0,0,13394,35930,2002,20932,1569,20.9,28.7,29.7,17.7,17.4,13.4,21.8,83.2,10.7,0,2.1,1.5,2.5,28.6,6549,72.8,17.9,8.9,0.4,3.5,7,9,2121,4362,4066,1719,17.3,35.6,33.1,14,3050,17.4,37799,652.19,26.8541375979392
"05123","AR","St. Francis",0.43,0.543,7430,3195,4031,0.457,0.506,7054,3221,3571,35.02201976,-90.74828138,1794,10,26688,14664,12024,2.6,40.4,55.3,0.3,0.5,0,20467,33102,2378,16518,1110,27.5,43.1,23.2,19.7,20.1,12.3,24.7,83.2,8.7,0,1,2.9,4.1,19.7,8677,71.2,18.5,10.1,0.2,10,6,3,3550,7120,5723,1947,19.4,38.8,31.2,10.6,7586,35.6,33257,634.77,42.0435748381303
"05125","AR","Saline",0.682,0.252,52578,35852,13247,0.694,0.282,56903,39519,16042,34.64916145,-92.67583224,3056,34,116252,57280,58972,4.5,85.9,6.4,0.3,1.1,0.1,86881,58985,2015,28410,797,8,10.2,35.4,15.7,27.3,9.9,11.5,85.9,9.7,0,0.5,1.1,2.7,26.1,55741,78.9,16.6,4.5,0.1,4.3,2,2,7790,25636,26748,21234,9.6,31.5,32.9,26.1,11695,9.7,63677,723.6,160.657822001106
"05127","AR","Scott",0.783,0.167,3038,2378,507,0.834,0.136,3551,2962,483,34.85588887,-94.0632176,233,2,10584,5290,5294,7.5,84.5,0.2,1.3,3.5,0,7841,37396,4756,18077,1758,20.5,31.4,23.7,16.9,17.7,14.4,27.3,71.4,19.9,0.2,2.7,1,4.8,19.7,4069,77.2,13.6,8.5,0.7,10.6,6,6,1468,2984,1858,631,21.1,43,26.8,9.1,2054,20.2,35826,892.32,11.8612157073696
"05129","AR","Searcy",0.793,0.161,3728,2955,601,0.837,0.146,4019,3365,588,35.9109364,-92.69936482,212,1,7925,4030,3895,2.2,93.5,0.2,1,1.3,0,6297,36716,4199,21475,2369,17.4,17.9,25,10.1,23.2,19.9,21.9,72.7,17.2,0.4,4,1.4,4.3,28.9,3082,65.2,16.3,18.5,0,3.6,9,10,902,2622,1562,728,15.5,45.1,26.9,12.5,1912,24.3,31659,666.1,11.8976129710254
"05131","AR","Sebastian",0.652,0.276,44119,28769,12184,0.662,0.307,46838,31024,14371,35.19605503,-94.27162713,5104,99,127362,62180,65182,13.7,70.4,6.7,1.1,4.3,0,89587,40932,1755,23916,921,22.5,33.7,29.4,18.1,23.6,9.9,19,82.3,11.5,0.4,1.8,1.8,2.3,19,55376,85.3,9.9,4.6,0.2,5.6,2,2,14230,27083,26577,16641,16.8,32,31.4,19.7,19527,15.6,46843,531.91,239.442762873418
"05133","AR","Sevier",0.718,0.235,4570,3281,1075,0.747,0.215,5202,3884,1116,33.99780401,-94.2424869,1409,16,17206,8612,8594,32.9,58.3,4.8,1.6,0.4,0.2,10198,43675,2792,18388,1020,21.2,31.5,21.2,15.6,18.2,18.9,26.1,72.6,23.5,0.2,0.8,0.8,2,25.8,7225,76.6,15.2,8.2,0,6.6,6,6,2752,3859,2858,1232,25.7,36.1,26.7,11.5,3402,20.1,44100,565.13,30.4460920496169
"05135","AR","Sharp",0.746,0.203,7246,5405,1472,0.785,0.185,7544,5923,1392,36.16258158,-91.47819342,384,10,17041,8336,8705,2.1,93.9,0.4,0.5,0.4,0,13330,31792,1931,20078,2975,23.3,34.6,26.6,21.6,21.1,15,15.8,78.7,14.8,0,1.2,1.6,3.8,25,5867,74.9,14.8,10.2,0,6.7,7,9,2027,5176,3734,1397,16.4,42,30.3,11.3,3541,20.7,36032,604.44,28.1930381841043
"05137","AR","Stone",0.733,0.214,5568,4081,1189,0.777,0.199,5938,4616,1180,35.86251946,-92.15684085,409,21,12443,6242,6201,1.8,94.9,0.1,0.6,0.1,0,9936,33091,4191,19881,1906,24.2,37.1,31.4,18.7,14.1,24.4,11.4,73,10.8,0,3.5,3.9,8.9,23.3,4345,60.7,17.4,21.8,0.1,8.3,9,9,1869,3323,2790,1173,20.4,36.3,30.5,12.8,2497,20.3,34009,606.41,20.5191207269009
"05139","AR","Union",0.621,0.345,16433,10201,5667,0.631,0.336,16548,10446,5559,33.16887091,-92.59746952,1187,52,40022,19451,20571,3.8,61.1,32.7,0.8,0.5,0,29830,41106,2148,23463,1330,20.1,30.1,33.4,13.4,25,11.4,16.8,89.4,7.3,0.2,1,0.4,1.7,19,15544,79.8,15,5,0.2,8.3,7,8,4129,9543,7769,5638,15.2,35.2,28.7,20.8,7000,18.2,45335,1039.21,38.511946574802
"05141","AR","Van Buren",0.756,0.217,7116,5382,1547,0.774,0.203,7704,5962,1566,35.58095779,-92.51295036,215,3,16751,8356,8395,2.9,93.7,0.4,0.6,0.1,0,13264,34428,2409,20568,1181,19.6,29.5,26.9,16.7,24.1,17.1,15.3,82,10.7,0,1.8,1.7,3.8,27.9,5646,75.5,12.6,11.8,0,8.3,8,6,1741,5387,3412,1730,14.2,43.9,27.8,14.1,2685,16.4,40486,708.14,23.6549269918378
"05143","AR","Washington",0.508,0.406,79543,40418,32296,0.505,0.464,93467,47229,43327,35.976844,-94.21800746,11881,154,223683,111839,111844,16.5,71.9,3.4,0.8,2.4,2,150386,47452,1026,26371,783,18,21.2,37.5,16.1,22.8,9.5,14.2,80,12.4,0.7,2.1,1.3,3.5,21.5,106905,79.4,14.8,5.7,0.1,4.9,2,2,20771,36295,35712,45385,15,26.3,25.8,32.8,34741,15.2,50893,941.97,237.462976527915
"05145","AR","White",0.753,0.185,27945,21038,5157,0.784,0.193,30689,24057,5909,35.25688493,-91.74908296,1622,33,78706,38653,40053,4.2,88.4,4,0.2,0.7,0,58682,44074,3056,23120,1360,16.6,19.8,33.4,17.4,21.2,11.5,16.5,82.2,11.2,0,2.8,0.7,3.1,24,32331,79.6,14,5.9,0.5,6.2,4,5,7454,19564,13034,10878,14.6,38.4,25.6,21.4,12505,16.6,44811,1035.08,76.0385670672798
"05147","AR","Woodruff",0.524,0.435,2566,1344,1117,0.625,0.344,2469,1543,849,35.18902527,-91.2439489,136,0,6763,3193,3570,0.5,69.2,27.5,0,1.5,0.1,5272,30097,3976,19987,1715,26,34,35.4,15.7,21.9,12.5,14.5,84.2,9,1.2,2.4,1.1,2.2,18.1,2603,81,12.8,6.2,0,10.1,9,10,943,2008,1202,569,20,42.5,25.5,12,1509,23.7,34306,586.79,11.5254179519078
"05149","AR","Yell",0.716,0.229,6423,4600,1472,0.776,0.19,6711,5205,1275,35.00292371,-93.41171338,1368,31,21601,10722,10879,19.7,75.6,2,0.8,1.4,0,14691,39696,2480,20209,1455,17.8,27.3,23.5,17,20,16.8,22.8,79,10,0.6,2.2,2.2,6,20.8,8852,78.7,14.4,6.6,0.3,6.3,6,5,2892,5923,3721,1963,19.9,40.9,25.7,13.5,3453,16.3,41729,929.98,23.227381234005
"06001","CA","Alameda",0.151,0.795,424517,64010,337524,0.176,0.804,750128,131985,602851,37.64629437,-121.8929271,23994,464,1629615,799649,829966,22.5,32.2,10.7,0.3,28.7,0.8,1056116,85743,940,41363,335,11.3,13,48,16,20.4,6.4,9.2,62,10.1,14.6,3.7,3.6,6,32.5,826310,79.3,13.2,7.3,0.1,6,1,1,139234,203838,281631,531701,12,17.6,24.4,46,147394,9,101744,739.02,2205.10270358042
"06003","CA","Alpine",0.367,0.553,575,211,318,0.323,0.643,736,238,473,38.59678594,-119.8223594,8,0,1203,664,539,9.7,64.6,1.5,20.6,0.7,0,936,63438,4535,27448,6258,19.8,17.3,38.2,21.9,18.7,12.8,8.3,62.1,13.2,0,9.1,1.6,14,21.9,374,58.6,30.2,11.2,0,14.6,8,4,87,225,237,235,11.1,28.7,30.2,30,190,17.3,55384,738.33,1.62935272845476
"06005","CA","Amador",0.604,0.34,10049,6069,3420,0.609,0.366,22282,13571,8147,38.44583082,-120.65696,347,16,37306,20005,17301,13.2,79.3,2,0.7,1.5,0.2,30677,60636,2765,29628,1631,10.6,20.3,32.7,23.2,24.1,9.9,10.1,80.7,9.2,0.1,2.5,1.1,6.4,32,13444,63.9,21,14.7,0.4,9.3,6,4,2864,8461,12198,5997,9.7,28.7,41.3,20.3,4130,11.8,58515,594.58,62.7434491573884
"06007","CA","Butte",0.489,0.438,72299,35354,31638,0.477,0.495,99780,47568,49402,39.66727762,-121.6005252,3172,53,225207,111587,113620,15.7,72.9,1.5,0.7,4.4,0.2,172105,46516,1130,26304,656,20.5,21.5,35.9,22.2,22.7,9.2,10.1,75,11.1,1.2,3.2,3.9,5.7,20.1,93439,72.8,17.2,9.7,0.4,9.1,3,2,15823,33611,59196,39260,10.7,22.7,40,26.5,42016,18.5,50945,1636.46,137.61839580558
"06009","CA","Calaveras",0.581,0.354,19029,11064,6740,0.61,0.368,26717,16287,9845,38.20537103,-120.552913,354,21,45057,22292,22765,11.5,82,0.6,0.9,1.2,0.5,35783,54800,3529,31652,1278,12.8,18.9,35.6,18.4,22.9,11.6,11.5,79.1,9.9,1,1.2,0.6,8.3,35.5,16721,67.6,18.2,13.7,0.4,7.1,6,6,3332,9557,15239,6474,9.6,27.6,44,18.7,5454,12.1,62984,1020.01,44.1730963421927
"06011","CA","Colusa",0.547,0.397,6260,3425,2484,0.573,0.406,7672,4399,3114,39.17881957,-122.2331726,557,6,21479,11157,10322,58.4,36.3,0.9,1.1,1.5,0.1,12364,56481,4858,25676,2010,14,20.7,24.2,19.2,16.6,26.2,13.8,76.9,14.2,0.3,2.5,1.6,4.5,24.7,9470,76.6,13.4,9.7,0.2,5.9,6,4,4174,3225,4132,2103,30.6,23.7,30.3,15.4,2350,11,57249,1150.73,18.6655427424331
"06013","CA","Contra Costa",0.259,0.688,337297,87211,231968,0.262,0.718,567882,148623,407639,37.91923498,-121.9289527,19195,246,1123678,548675,575003,25.3,44.9,8.3,0.2,15.8,0.5,743847,88456,822,42898,416,9.8,12.4,43,18,23.1,7.9,7.9,68.1,11.7,10.3,1.7,1.9,6.3,37.1,535401,78,13.4,8.4,0.2,6.9,1,1,82574,136610,233998,324337,10.6,17.6,30.1,41.7,88980,7.8,101463,715.94,1569.51420510099
"06015","CA","Del Norte",0.55,0.377,7949,4370,2997,0.564,0.408,11403,6434,4656,41.74228275,-123.8974063,181,1,27442,15008,12434,19.2,62.8,1.8,7.2,2.7,0.1,20803,41287,4114,20809,1306,23.2,31.2,32.5,31.7,19.9,8.6,7.3,73.7,14.5,0.6,3.6,1.9,5.6,14.4,8742,56.8,32.9,9.8,0.4,9.5,7,8,3684,6131,6840,2782,19,31.5,35.2,14.3,5065,20.4,48518,1006.37,27.2683009231197
"06017","CA","El Dorado",0.534,0.401,69852,37286,28026,0.531,0.446,114766,60967,51157,38.77965956,-120.5233166,1390,4,185015,92304,92711,12.6,78.5,0.9,0.6,4.2,0.2,139367,74885,2565,38156,917,9.8,11.6,41.4,19,24.2,8.2,7,77.8,8.5,1.8,2,1.6,8.3,29.1,80373,72,16.8,11.1,0.2,8.1,1,1,9299,28621,51399,45397,6.9,21.2,38.2,33.7,15401,8.1,81869,1707.88,108.330210553435
"06019","CA","Fresno",0.466,0.486,201710,94005,98103,0.451,0.529,356004,160689,188224,36.75733899,-119.6466953,31558,443,971616,484667,486949,52.4,30.2,4.7,0.4,9.9,0.1,575985,48730,655,22234,215,25.4,36.5,29.1,19.6,23,14.8,13.5,78.1,12.2,1.2,1.6,2.5,4.3,22.4,392003,74.8,18.4,6.6,0.2,10.4,2,2,147389,136851,188858,123407,24.7,22.9,31.7,20.7,208627,21.3,52318,5957.99,163.077816511944
"06021","CA","Glenn",0.626,0.325,5440,3405,1766,0.629,0.35,10890,6854,3815,39.59875897,-122.3938452,685,3,27935,14213,13722,40.8,52.5,0.8,1.7,2.6,0.3,16753,46260,3402,21029,967,19.6,25.5,22.6,19.7,17.8,23.9,16,75.9,12.4,0.4,3.9,1.6,5.7,24,10775,70.9,17.3,10.9,0.9,9.2,6,6,4426,5058,5956,2484,24.7,28.2,33.2,13.9,4271,15.4,47365,1313.95,21.2603219300582
"06023","CA","Humboldt",0.324,0.583,33636,10883,19596,0.299,0.675,45961,13756,31010,40.69923009,-123.876044,571,10,135490,67508,67982,11.1,74.9,1,4.6,2.9,0.3,105236,43718,1579,25208,780,20.8,22.5,33.9,23.1,23.6,10.3,9.1,72,9.1,1.9,6.7,2.8,7.4,18.2,59592,63.6,21.5,14.5,0.4,8.9,5,8,8878,21615,34073,27380,9.7,23.5,37.1,29.8,27002,20.3,49471,3567.99,37.9737611372229
"06025","CA","Imperial",0.269,0.687,20858,5607,14331,0.346,0.634,38727,13401,24551,33.0393082,-115.3669042,13038,338,179957,91963,87994,83.4,11.3,2.3,0.6,1.3,0.1,100556,44779,1850,17303,582,23.8,31,24.4,24.3,24.7,13.4,13.1,81.4,8.8,0.8,1.9,2.6,4.4,20.8,59757,67.9,26.2,5.7,0.2,16,3,2,33928,26758,32850,15802,31,24.5,30,14.5,37014,21.4,46633,4176.6,43.0869606857252
"06027","CA","Inyo",0.532,0.395,7761,4128,3067,0.485,0.491,9147,4436,4495,36.51112084,-117.4111978,241,15,18195,9172,9023,21.4,63.5,0.9,10.8,1.5,0.2,13620,51500,4578,30323,1140,10.2,13.3,31.5,23,22.4,14.5,8.7,69.4,12.5,1.3,7.2,5.2,4.5,16.9,8275,61.5,30.1,8.4,0,5.2,7,11,1478,3883,4431,3452,11.2,29.3,33.5,26.1,2172,12.3,53793,10180.88,1.7871736038535
"06029","CA","Kern",0.563,0.385,168734,95064,64980,0.516,0.462,183717,94844,84946,35.34329425,-118.7277796,34378,424,878744,450393,428351,52.2,35.4,5.1,0.5,4.5,0.1,512066,50826,771,21716,280,22.6,31.3,26.4,18.4,20.6,21.2,13.4,79.2,12.8,0.9,1.2,2.7,3.2,23.4,335688,76.7,16.6,6.5,0.2,10.9,2,2,139584,147239,159525,85752,26.2,27.7,30,16.1,177021,20.5,51586,8131.92,108.061072907751
"06031","CA","Kings",0.56,0.386,23497,13158,9077,0.553,0.423,41933,23169,17729,36.07409056,-119.8159973,8612,83,150183,82982,67201,53.7,33.1,5.9,0.8,3.6,0.2,92011,49742,1744,19835,656,20.9,28.7,24.4,21.4,20.8,19.5,13.8,75.6,14.4,0.9,2.2,2,5,22.4,53158,70.2,24.5,5.2,0.2,9.7,3,2,24270,23540,32073,12438,26.3,25.5,34.7,13.5,25481,18.8,58255,1389.42,108.090426221013
"06033","CA","Lake",0.441,0.478,13045,5752,6240,0.358,0.623,11038,3955,6874,39.10124298,-122.7536244,727,18,64095,31788,32307,19.4,71.7,2.1,3.2,1.4,0,48145,40446,2857,23345,1183,22.8,31.6,25.8,26.5,21.4,16.1,10.1,71.3,11.5,1,3,0.6,12.5,28.9,22691,68.3,20,11.4,0.3,11.2,4,5,6872,13951,18247,7324,14.8,30.1,39.3,15.8,11689,18.4,45086,1256.46,51.0123680817535
"06035","CA","Lassen",0.719,0.223,9089,6533,2026,0.747,0.235,11779,8798,2772,40.67311306,-120.5935099,782,1,31470,20786,10684,18.5,66.1,8.6,2.9,1.5,0.7,25121,54083,2927,20974,1015,14.6,20.7,28.4,28.8,21,10.9,11,80.1,9.8,0.7,2.8,0.9,5.8,20.9,9052,43.6,47.7,8.2,0.4,7.5,7,8,3853,7444,8396,2697,17.2,33.2,37.5,12,3653,15.8,57705,4541.18,6.92991689384697
"06037","CA","Los Angeles",0.234,0.715,2314275,542591,1654626,0.267,0.712,4139895,1107090,2947568,34.30828379,-118.2282411,309190,7074,10105722,4979641,5126081,48.4,26.5,7.9,0.2,14.3,0.2,6218279,61015,262,30798,129,17,24,36.4,19,24.1,7.6,12.8,73.7,9.6,6.3,2.7,2.3,5.3,30.9,4805817,79.3,11.2,9.3,0.2,7.8,1,1,1460718,1416482,1790808,2177481,21.3,20.7,26.2,31.8,1409155,14.2,67986,4057.88,2490.39449170503
"06039","CA","Madera",0.561,0.388,34263,19221,13283,0.547,0.431,52029,28458,22438,37.21513971,-119.7665589,5094,76,154440,74583,79857,56.9,35.1,3.1,1.1,2,0.1,90030,48210,2108,19975,565,22.1,31.5,23.9,17.3,22,23,13.8,76.4,15.5,0.5,2,2,3.6,25.6,56076,78.4,14.6,6.9,0.1,8.3,3,2,27278,24249,31404,14084,28.1,25,32.4,14.5,30201,20.2,53632,2137.07,72.2671695358598
"06041","CA","Marin",0.161,0.789,88115,14214,69518,0.156,0.826,151603,23662,125172,38.07122463,-122.7210631,7133,127,260814,127423,133391,15.9,71.5,2.1,0.1,5.7,0.1,184739,104703,1763,66748,1603,8.1,9.7,53.8,14.4,21.4,5.7,4.6,65.3,8.1,9.8,3.7,2.4,10.7,31.7,130570,74.1,10.6,15,0.2,4.5,1,1,12883,20858,44782,112018,6.8,10.9,23.5,58.8,16742,6.6,122933,520.31,501.266552632085
"06043","CA","Mariposa",0.588,0.35,7345,4317,2568,0.579,0.398,10280,5950,4088,37.57978556,-119.9073334,81,2,17658,8863,8795,10.6,81,1.2,2.4,1,0.3,14129,51385,3637,28241,1665,15.1,17.5,30.5,32.7,20.6,8,8.2,62.1,12.9,2.4,9.5,3.9,9.2,30.9,7009,62.4,26.5,10.3,0.7,10,8,7,1316,3622,5524,3197,9.6,26.5,40.4,23.4,2569,14.9,51402,1448.82,12.1878494222885
"06045","CA","Mendocino",0.312,0.604,11435,3571,6905,0.251,0.727,25171,6312,18303,39.4381191,-123.3911313,1165,21,87497,43668,43829,24.5,65.9,0.6,3.3,1.7,0.2,61818,46528,1787,27093,1426,19.1,24.4,32.5,22,22.6,14.4,8.5,74.6,10.1,0.3,5.2,1.7,8.1,19.8,37084,63.6,19.7,16.2,0.5,10.4,4,5,8101,15925,22532,15241,13.1,25.8,36.5,24.7,15140,17.5,51386,3506.34,24.9539405762134
"06047","CA","Merced",0.435,0.514,42523,18486,21856,0.433,0.544,81356,35240,44260,37.18922369,-120.7209035,9674,156,267390,135045,132345,58.2,28.8,3,0.3,7.3,0.1,148454,46338,1301,20120,574,23.3,33.4,23.4,19,21.6,19.1,17,78.8,10.8,1.2,2.1,3.7,3.4,27,99026,76.6,16.6,6.7,0.1,14.6,2,2,48433,40839,46711,22051,30.6,25.8,29.6,14,56863,21.2,56169,1934.97,138.18818896417
"06049","CA","Modoc",0.718,0.238,3359,2413,798,0.703,0.279,3805,2675,1063,41.58965602,-120.7244817,51,0,9017,4659,4358,14.6,78,0.7,4,1.1,0.1,6783,39296,4907,22052,1610,18.1,20.4,36.5,13.4,23.5,18.4,8.3,70.3,7.4,0.5,5.9,0.7,15.1,15.2,3231,58.3,29.2,11.9,0.5,7.5,6,6,974,2185,2536,1078,14.4,32.3,37.4,15.9,1631,19.1,45227,3917.77,2.3015644103661
"06051","CA","Mono",0.402,0.516,4946,1989,2551,0.373,0.596,6713,2504,3998,37.93899289,-118.8872409,194,2,14058,7433,6625,27.1,66.1,0.4,2.2,2,0,9286,60595,6356,30888,2023,9.9,12,37,30.3,18,7.3,7.3,44.8,7,19.7,11.1,8.1,9.3,16.1,7864,75.2,15.3,8.3,1.2,3.6,7,11,1131,2290,3545,3076,11.3,22.8,35.3,30.6,1312,9.3,66499,3048.98,4.61072227433437
"06053","CA","Monterey",0.276,0.669,70861,19580,47387,0.278,0.7,155994,43439,109145,36.21862405,-121.2413397,11752,96,433168,221016,212152,57.9,30.6,2.5,0.2,5.6,0.5,231733,63249,1209,27168,479,14.7,21.6,28.5,20.1,20.2,20.4,10.9,71.1,10.7,1.7,3.1,8.8,4.6,22.4,182439,76.6,15,8.2,0.2,6,2,2,78816,56133,72422,67157,28.7,20.4,26.4,24.5,55614,13.3,69665,3280.6,132.039261110772
"06055","CA","Napa",0.296,0.649,31534,9335,20454,0.286,0.692,67847,19388,46962,38.50735751,-122.332839,2040,16,141005,70311,70694,33.7,53.2,2,0.3,7.8,0.2,95211,79637,1895,40632,883,8.2,9,36.3,21.2,21.5,10.7,10.3,76.1,11.5,1.4,3.9,1.6,5.6,24.1,71110,78.6,12.1,9.1,0.2,5.4,3,2,14670,17644,31629,34277,14.9,18,32.2,34.9,11829,8.8,85624,748.36,188.418675503768
"06057","CA","Nevada",0.442,0.487,33258,14686,16199,0.407,0.57,54177,22059,30860,39.30394768,-120.7627281,644,9,98838,48732,50106,9.2,85.4,0.5,0.7,1.1,0.1,78584,60610,2262,35581,1345,12.1,15.1,41.3,20.3,22.7,8.3,7.5,74.4,8.6,1.2,2.8,2.7,10.4,24.5,42302,69.3,14.5,15.7,0.6,7.3,4,3,4386,13945,29692,27754,5.8,18.4,39.2,36.6,10171,10.3,66681,957.77,103.195965628491
"06059","CA","Orange",0.447,0.499,830206,371268,413982,0.444,0.536,1503039,667038,805222,33.70147516,-117.7645998,60115,1484,3155816,1558245,1597571,34.2,41.4,1.6,0.2,19.5,0.3,2021028,81851,570,37603,270,12.1,16.4,40.9,17.5,24.8,6.6,10.2,78.6,9.8,2.2,1.9,2,5.6,27.4,1560997,82,10.1,7.7,0.2,5.8,1,1,320340,368858,604676,857638,14.9,17.1,28.1,39.9,330559,10.5,89373,790.57,3991.82362093173
"06061","CA","Placer",0.525,0.418,105157,55212,43915,0.515,0.462,215442,110859,99585,39.06167234,-120.7240569,4374,59,374985,183021,191964,13.6,73.8,1.4,0.3,6.8,0.1,275790,80488,1431,39734,588,8.2,8.3,44,16.6,25.7,7.4,6.4,79.5,7.8,1.3,1.5,1.6,8.3,27.3,170791,75.7,15.8,8.3,0.2,5.6,1,1,14403,48289,100446,102345,5.4,18.2,37.8,38.6,27596,7.1,89175,1407.01,266.51196508909
"06063","CA","Plumas",0.575,0.365,8830,5079,3224,0.571,0.408,10950,6247,4465,40.00355989,-120.8395236,85,0,18724,9432,9292,8.5,83.5,0.9,1.8,0.8,0.3,15324,50266,3476,32056,2776,13.3,12.8,32.4,25.1,18.6,13.9,10,78.5,10.3,0.1,3.1,2.3,5.7,21.9,7260,59.9,26,14,0.2,9.4,7,12,874,3638,6528,3390,6.1,25.2,45.2,23.5,2317,12.5,55079,2553.04,7.33400181744117
"06065","CA","Riverside",0.464,0.49,517200,240013,253215,0.447,0.536,722913,323026,387200,33.74314981,-115.9933578,68178,1319,2355002,1171711,1183291,48,36.6,6,0.4,6.1,0.3,1487322,60807,429,25700,191,15.6,21.3,29.4,21.4,24.6,11.4,13.2,77.2,12.9,1.3,1.6,1.7,5.2,33.1,978726,77.7,14.7,7.5,0.2,9.9,1,1,280295,411949,504267,333718,18.3,26.9,33,21.8,307511,12.7,66793,7206.48,326.789500560607
"06067","CA","Sacramento",0.358,0.582,373433,133829,217211,0.347,0.631,536614,186311,338632,38.45106826,-121.3425374,26316,500,1495400,730680,764720,22.8,45.7,9.5,0.4,15.1,1.1,1013094,60239,475,29693,258,16.7,22.6,38.4,19.6,24.8,7.9,9.3,77.1,10.4,2.7,1.9,2.4,5.5,26.9,666790,71.5,21.3,6.9,0.2,8.8,1,1,127852,225825,350480,308126,12.6,22.3,34.6,30.4,217138,14.3,69475,964.64,1550.21562448167
"06069","CA","San Benito",0.371,0.574,11758,4358,6751,0.368,0.611,28317,10412,17315,36.60308176,-121.069975,1473,15,58671,29208,29463,58.9,35.6,0.7,0.3,2.7,0.2,36368,80760,3889,30012,976,9.7,14.4,29.1,18.5,22,16.9,13.5,80.3,13.5,0.5,1.2,1.1,3.4,34.1,27688,76,16.6,7.3,0.1,8.8,1,1,7658,9440,13492,7486,20.1,24.8,35.4,19.7,5294,8.6,80063,1388.71,42.248561614736
"06071","CA","San Bernardino",0.431,0.518,498697,214698,258409,0.436,0.544,675896,294786,367354,34.84060306,-116.1774685,65207,1078,2121220,1055170,1066050,52.3,29.8,8,0.3,6.7,0.3,1332784,57156,594,22867,208,18.2,25.8,29,18.8,25.4,10.1,16.7,78.9,12,1.5,1.7,1.2,4.7,30.9,869658,77.3,16.2,6.4,0.1,9.9,1,1,272865,352296,436563,270028,20.5,26.5,32.8,20.3,317514,14.9,63310,20056.94,105.759901560258
"06073","CA","San Diego",0.389,0.559,768383,298521,429338,0.375,0.602,1582217,592617,953278,33.03484597,-116.7365326,57102,891,3283665,1651147,1632518,33.4,46.2,4.7,0.4,11.5,0.4,2207599,70588,617,34350,192,13.3,17.1,41.3,19.6,23,7.6,8.4,76,8.9,3.1,2.9,2.2,7,25.7,1536073,77.8,14.2,7.8,0.2,7.1,1,1,286008,409272,680074,848022,12.9,18.4,30.6,38.1,372148,11.5,78777,4206.63,780.592778542444
"06075","CA","San Francisco",0.099,0.853,279917,27633,238772,0.127,0.853,440418,55988,375630,37.75215114,-122.4385672,12454,148,864263,440633,423630,15.3,40.8,5.1,0.2,33.9,0.3,641255,96265,1349,59508,760,11.7,11.4,55,16.5,19.5,3.5,5.5,34.3,6.8,34,11.1,7.1,6.7,32.8,504914,80.5,11.2,8.2,0.1,5.4,1,1,79408,84630,131509,394004,11.5,12.3,19.1,57.1,87596,10.1,110601,46.87,18439.5775549392
"06077","CA","San Joaquin",0.419,0.532,134076,56194,71349,0.401,0.58,199069,79830,115494,37.93433732,-121.2730061,22106,494,724153,360247,363906,40.8,33.2,6.7,0.2,14.8,0.5,442154,57813,863,24694,339,17.1,23.1,27.5,18.8,23.6,13.6,16.6,77.4,13.9,1.5,1.6,1.5,4,32,296264,79,14.4,6.4,0.2,10.1,2,2,96905,129211,147635,84486,21.1,28.2,32.2,18.4,105351,14.3,63567,1391.32,520.479113359975
"06079","CA","San Luis Obispo",0.424,0.508,106021,44981,53911,0.421,0.555,153409,64514,85183,35.38822029,-120.4039028,4298,32,280119,142182,137937,22.2,69.4,1.8,0.4,3.6,0.1,214960,67175,1720,33972,632,13.8,12.9,39.2,20.6,22,10.1,8.2,74.8,9.9,1.4,3.9,3.2,6.7,21.8,129277,70,18.8,10.8,0.4,4.8,2,2,17123,37163,68352,64923,9.1,19.8,36.4,34.6,34200,12.7,70626,3298.57,84.9213447039171
"06081","CA","San Mateo",0.191,0.763,213715,40809,163084,0.202,0.78,358289,72284,279360,37.4228808,-122.3275546,11371,161,763450,376145,387305,24.9,39.9,2.3,0.1,27.2,1.4,494912,105667,1195,53516,554,7.3,8.7,47.4,17.2,22,6,7.4,68.7,10.6,10.4,2.6,2.8,4.8,28.2,404882,80.5,11.3,8,0.2,4.7,1,1,59339,82174,132756,273630,10.8,15,24.2,49.9,51830,6.8,122930,448.41,1702.57130750875
"06083","CA","Santa Barbara",0.329,0.611,139366,45788,85147,0.327,0.65,194378,63583,126419,34.65329488,-120.0188492,9957,128,442996,221955,221041,44.8,45.3,1.7,0.3,5.2,0.1,281009,68023,1420,32872,590,15.4,19.4,35.2,21.7,21,14.1,8.1,68,13.6,3.2,4.6,4.8,5.8,19.4,211793,75.7,16,8.1,0.2,6.6,2,2,52042,49059,80080,92634,19,17.9,29.2,33.8,54029,12.6,75646,2735.09,161.967613497179
"06085","CA","Santa Clara",0.21,0.734,553336,116196,406049,0.252,0.727,808509,203648,587945,37.23104908,-121.6970462,25139,406,1911226,963317,947909,26.1,32.6,2.4,0.2,34.9,0.3,1162019,106761,858,48689,418,8.6,9.7,52.1,15.1,18.6,6.3,7.9,75.1,10.5,4.4,2.1,3.1,4.8,28,967294,84.7,9.3,5.9,0.1,5.7,1,1,157687,191695,294921,679498,11.9,14.5,22.3,51.3,139074,7.3,125933,1290.1,1481.45570110844
"06087","CA","Santa Cruz",0.181,0.754,80273,14523,60529,0.185,0.791,141079,26072,111534,37.05580291,-122.0066524,2895,26,273263,135654,137609,33.3,57.8,0.8,0.2,4.4,0.1,189870,73663,1682,36388,789,14.7,17,40.7,18.8,21.3,10.9,8.2,69.2,9,2.8,4.5,7,7.5,26.8,133847,73.5,15.4,10.8,0.3,6.7,2,2,24323,28222,54710,71610,13.6,15.8,30.6,40,32027,12.2,84213,445.17,613.839656760339
"06089","CA","Shasta",0.658,0.284,61493,40447,17483,0.652,0.325,88761,57894,28889,40.76391419,-122.0396884,2122,31,178919,87753,91166,9.6,80.4,1.1,2.2,2.9,0.1,135637,47258,1104,26455,578,18.1,25.4,31.7,21.9,26.3,10.5,9.5,82,7.5,0.6,2.2,1.9,5.8,19.9,72195,73.3,16.5,10,0.2,6.8,3,2,11606,31314,55236,27995,9.2,24.8,43.8,22.2,26919,15.2,53908,3775.4,47.390740054034
"06091","CA","Sierra",0.583,0.333,1791,1044,596,0.592,0.378,1930,1142,730,39.57713498,-120.5200701,6,0,2885,1488,1397,10.1,87,0.1,1,0,0,2419,44190,9650,31750,5272,12.3,10.6,30.2,18.3,17.5,19.4,14.6,66.5,11.4,0,3.4,0.7,18.1,29.6,1149,47.6,35.1,15.1,2.3,5.3,8,7,156,620,1118,436,6.7,26.6,48,18.7,392,13.3,52308,953.21,3.02661533135406
"06093","CA","Siskiyou",0.573,0.359,14639,8392,5252,0.565,0.411,22991,12985,9456,41.59198861,-122.5407434,241,0,43530,21706,21824,12,77.2,1.5,2.9,1.6,0.3,33669,40884,1957,24605,879,20.7,26.6,32.9,21.3,21.9,14.4,9.5,74.4,9.9,0.7,4.9,1.3,8.9,18.9,16544,63,22.5,14.3,0.3,9.1,6,6,3181,8118,13330,7163,10,25.5,41.9,22.5,7396,17.1,47560,6277.89,6.93385835049674
"06095","CA","Solano",0.323,0.619,141218,45641,87419,0.336,0.641,201864,67793,129344,38.26827353,-121.9357113,7634,76,434981,216074,218907,25.8,39,13.8,0.3,14.8,0.9,302379,72950,1244,31934,518,11.5,16.6,32.7,20.4,24.2,10.5,12.2,76.6,13.6,3,1.3,1.4,4.1,31.8,196309,74.9,18.5,6.5,0.1,8.5,2,2,36031,69822,115304,78496,12,23.3,38.5,26.2,34281,7.9,82808,821.77,529.322073086143
"06097","CA","Sonoma",0.228,0.707,164060,37421,116027,0.205,0.776,197603,40478,153342,38.52746429,-122.8862506,9686,136,500943,245381,255562,26.4,63.8,1.4,0.5,3.9,0.3,354994,71769,1046,37767,713,10.7,13.1,37.2,20,22.4,10.6,9.8,75,11,1.9,3.1,2.1,6.9,25.2,249134,75.7,12.9,11.3,0.2,5.9,2,2,42831,67183,123081,124873,12,18.8,34.4,34.9,48846,9.9,81002,1575.85,317.887489291494
"06099","CA","Stanislaus",0.48,0.467,109582,52567,51171,0.481,0.497,195857,94152,97430,37.55862499,-120.9970722,17979,401,535684,264824,270860,45,43.4,2.5,0.4,5.4,0.6,331295,54260,976,24007,467,17.2,23.2,27.2,18,23.8,14.4,16.7,80.5,10.9,0.8,1.5,1.7,4.6,28.2,219505,79.4,13.8,6.7,0.2,11.8,2,2,73664,97071,111660,57523,21.7,28.6,32.8,16.9,84744,15.6,59616,1494.83,358.357806573323
"06101","CA","Sutter",0.558,0.387,19617,10947,7599,0.572,0.407,41694,23864,16961,39.03417539,-121.6945899,1912,12,95583,47613,47970,30.2,47.3,1.8,0.7,15.1,0.4,60187,54347,2000,24849,832,16.7,23.3,29.6,19.1,22.3,16.5,12.5,78.4,13,0.8,1.8,1.4,4.6,26.4,38207,76.7,16.7,6.1,0.5,10.5,3,2,13697,14879,22621,11024,22,23.9,36.4,17.7,13011,13.5,57879,602.41,158.667684799389
"06103","CA","Tehama",0.654,0.293,17477,11429,5120,0.654,0.324,25005,16346,8105,40.12570935,-122.2370171,953,14,63247,31452,31795,24.2,69.2,0.6,1.5,1.4,0,45458,42512,2803,22631,948,20.9,30.9,23.7,22.1,23.6,14.3,16.3,81.2,9.4,0.3,2.9,1.5,4.7,23.5,23849,74.2,16.3,9.4,0.1,10.1,4,5,6766,13319,16540,6709,15.6,30.7,38.2,15.5,10749,17,47572,2949.71,21.4417688518532
"06105","CA","Trinity",0.511,0.398,4716,2409,1876,0.493,0.468,5095,2513,2383,40.6491767,-123.114713,33,0,13037,6603,6434,7.2,82.8,0.8,4.3,1.1,0.9,10463,36563,5946,23575,1598,19.9,24.5,30.3,27.6,21.1,9.1,11.8,69.3,9.5,0.1,3.8,2.2,15.1,17.4,4800,46.3,30.8,16.9,6.1,9.6,8,6,932,3325,3744,1965,9.4,33.4,37.6,19.7,2656,21.6,40680,3179.25,4.10065266965479
"06107","CA","Tulare",0.558,0.396,59817,33372,23663,0.528,0.45,142819,75471,64320,36.22026558,-118.8020203,17852,293,458809,229488,229321,63.6,29.5,1.3,0.7,3.2,0.1,249667,44871,1286,18962,394,27.1,36.2,25,18.1,20.2,22.6,14.2,78,14.3,0.7,1.7,2.2,3.1,22.5,173820,77.1,15.9,6.7,0.2,10,2,2,81345,69974,79261,38493,30.2,26,29.5,14.3,102451,22.2,48763,4824.22,95.1053227257463
"06109","CA","Tuolumne",0.568,0.378,18693,10614,7075,0.58,0.396,29820,17302,11808,38.02644018,-119.9525093,291,6,53899,28029,25870,11.8,80.8,1.7,1.3,1.1,0.2,43977,54325,2700,31570,1699,13.6,13.8,32.8,25.6,21.2,11.7,8.7,80.3,8.5,0.6,2.4,1.7,6.5,27,20401,68.7,18.1,12.8,0.3,7.9,4,5,3936,11680,17269,8238,9.6,28.4,42,20,6417,12.5,56500,2220.88,24.2692086019956
"06111","CA","Ventura",0.391,0.552,259438,101351,143095,0.383,0.595,417057,159791,248349,34.44465746,-119.0910613,14635,166,847834,419536,428298,42.3,46.1,1.6,0.3,7,0.1,551510,81972,983,35771,447,10.3,14.4,37.8,17.1,23.3,11.7,10,78.2,11.5,1.3,1.8,1.5,5.7,26.6,410179,77.8,13.7,8.4,0.1,6.6,2,2,88185,107135,183807,187558,15.6,18.9,32.4,33.1,76206,9.1,84170,1843.13,459.996853179103
"06113","CA","Yolo",0.26,0.681,50623,13178,34460,0.248,0.732,64934,16128,47504,38.68278902,-121.9018288,3303,60,212605,103617,108988,31.4,47.5,2.2,0.3,13.6,0.4,142947,61621,1733,30615,679,19.4,16.3,44.2,18.7,18.8,9,9.3,67,11.4,3.9,3.3,9.4,5,23.2,95944,66.7,27.1,6.2,0,7.2,1,1,17180,23271,33180,52424,13.6,18.5,26.3,41.6,42311,20.1,67804,1014.69,209.527047669732
"06115","CA","Yuba",0.594,0.343,14929,8869,5115,0.593,0.378,27329,16210,10343,39.26255932,-121.3535644,1353,10,74644,38081,36563,27.4,56.3,3.2,1,6.3,0.3,49482,51776,2375,22814,791,18.5,25,29.3,19.9,24.1,13.8,13,78.3,13.4,1,1.2,1.4,4.8,30.7,27832,67.9,22,9.8,0.4,9.9,3,2,8478,10898,19959,7866,18,23.1,42.3,16.7,13256,17.2,47504,631.84,118.137503165358
"08001","CO","Adams",0.421,0.494,175125,73807,86471,0.404,0.567,234599,94874,132951,39.87432092,-104.3362578,15538,263,487850,245840,242010,39.3,51.1,3,0.5,3.8,0.1,306416,64087,991,27487,366,12.2,16.4,29.8,18.9,24.1,13.7,13.5,77.7,11.2,3.8,1.2,1.1,5,29.2,246450,83.6,11.2,5.1,0.1,5.1,1,1,54079,90409,98693,74958,17,28.4,31,23.6,46711,9.2,70199,1167.65,417.804992934527
"08003","CO","Alamosa",0.439,0.459,6897,3031,3168,0.489,0.482,7519,3676,3624,37.57250606,-105.7885451,360,9,16345,8085,8260,45.8,48.6,1.6,1.3,1,0.2,11257,36315,4688,19217,1603,27.8,33.8,30.6,22.6,22.3,13.1,11.4,75.8,15.7,0,4.2,1.4,2.9,14.6,6593,73.1,18.2,6.3,2.3,9.9,7,11,1287,2598,3157,2484,13.5,27.3,33.1,26.1,2954,19.1,42897,722.64,22.6184545555187
"08005","CO","Arapahoe",0.389,0.527,281658,109638,148365,0.364,0.61,346740,126124,211498,39.64977461,-104.3353617,13956,387,626612,309190,317422,18.9,61.3,10.2,0.3,5.6,0.2,426765,69553,846,36951,489,9.9,13.2,41.4,16.7,25,7.9,9,77.4,8.5,4.4,1.5,1.3,6.8,27.7,330548,83,11.3,5.5,0.2,5.2,1,1,32895,89231,126707,181360,7.6,20.7,29.5,42.2,52474,8.1,76665,798.1,785.129682997118
"08007","CO","Archuleta",0.581,0.341,7290,4234,2489,0.568,0.409,9030,5126,3693,37.19474156,-107.0476867,68,0,12592,6400,6192,18.3,76.7,1.1,2.1,0.7,0,9992,48016,5197,29344,2043,11.6,21.3,37.3,17,20,16.5,9.2,71,13.5,0.2,3.7,1.8,9.7,17.2,5696,68,15.4,15.9,0.8,5.4,7,10,781,2102,3101,3813,8,21.5,31.7,38.9,1525,11.2,53337,1350.18,9.32616391888489
"08009","CO","Baca",0.814,0.132,2107,1716,278,0.839,0.143,2193,1840,313,37.31940883,-102.5603223,37,0,3581,1732,1849,10.5,85.7,1.5,1.1,0,0,2727,35898,2615,22853,1570,19.5,28.7,39.7,19.2,15.3,19,6.8,71.3,9.8,0,9.3,1.3,8.3,14.5,1655,55,25.3,16.9,2.8,4.5,9,12,398,714,923,577,15.2,27.3,35.3,22.1,678,19.4,38294,2554.97,1.40158201466162
"08011","CO","Bent",0.616,0.307,1892,1166,581,0.659,0.324,2229,1468,723,37.95474293,-103.0720195,18,0,5806,3767,2039,32,60.8,6.1,0.5,0.4,0,4660,32500,3442,14028,2107,24.5,32.4,31,27.2,18.5,13.9,9.3,77.7,12,0,4,2.7,3.5,20.1,1370,47.6,40.1,12.3,0,9.3,7,12,646,2208,1120,565,14.2,48.6,24.7,12.4,1353,33.9,37659,1512.86,3.83776423462845
"08013","CO","Boulder",0.219,0.706,176735,38766,124715,0.203,0.776,193656,39289,150247,40.09313619,-105.3546767,5988,88,316782,159112,157670,13.8,78.2,0.8,0.2,4.5,0.1,235892,75669,1234,42119,832,13.1,11.6,53.2,15.6,19.4,5,6.7,64.7,7.9,4.9,5.1,5.6,11.8,22.7,170940,78.9,13.1,7.8,0.2,5.2,2,2,10380,25800,46104,127566,4.9,12.3,22,60.8,30699,9.7,83591,726.29,436.164617439315
"08014","CO","Broomfield",0.382,0.523,37342,14272,19530,0.35,0.624,46297,16188,28871,39.95998787,-105.0566324,1091,42,64283,31920,32363,12.1,77.6,1,0.3,6.4,0,46152,85639,2394,43736,1707,5.2,4.7,53.3,12,22,5.9,6.8,77.9,6.4,3.6,1.1,1.8,9.3,27.9,34972,80.3,13.6,6,0.1,4,1,1,1460,6667,12122,25209,3.2,14.7,26.7,55.5,3364,4.9,96924,33.03,1946.2004238571
"08015","CO","Chaffee",0.48,0.434,10999,5283,4773,0.454,0.522,13620,6180,7112,38.74745778,-106.1926573,433,20,18818,10056,8762,10.1,85.3,1.6,0.4,0.8,0,15687,53762,2655,28907,2035,9.6,8.2,35.7,19.4,22.4,11.4,11,71.8,7.3,0.3,4.4,6.1,10.2,17.5,8379,71.8,18,9.5,0.6,2.5,7,11,1070,4038,4930,5068,7.1,26.7,32.6,33.5,2023,10.9,56168,1013.4,18.5691730807184
"08017","CO","Cheyenne",0.841,0.118,1076,905,127,0.874,0.115,1105,966,127,38.82777431,-102.6032558,15,0,2127,1086,1041,14.9,80,0,0,3.1,0.1,1362,54907,5772,23698,2186,11.8,10.2,37.1,12.1,19.2,17.5,14.1,73.1,5.7,0,6.6,2.9,11.7,12.6,931,60.4,22.8,16.4,0.4,8.1,9,12,125,460,427,253,9.9,36.4,33.8,20,230,12.6,54504,1778.28,1.19609960186247
"08019","CO","Clear Creek",0.439,0.467,5532,2426,2585,0.416,0.556,6290,2618,3495,39.68864463,-105.6463118,93,1,9257,4752,4505,6.1,89.9,0.9,0.1,0.9,0.2,7523,68534,4776,41257,4494,6.8,7.7,37.5,17.8,24.2,12.9,7.6,66.3,11.2,0.5,4,3.1,14.9,30.3,5248,67.7,18.9,13.1,0.2,3.2,1,1,123,1536,2270,3416,1.7,20.9,30.9,46.5,686,7.2,74019,395.23,23.4218050249222
"08021","CO","Conejos",0.475,0.442,3970,1885,1753,0.529,0.451,4291,2269,1936,37.201606,-106.1917488,82,0,8147,4084,4063,53.4,43.9,0.3,1.5,0.1,0.1,5755,35657,3150,19047,1395,21.1,27,30.3,20.5,17.6,19.5,12.1,77.3,14.7,0,1.6,1.8,4.6,21.6,2899,65.4,21.2,13.1,0.3,9.4,9,12,711,1717,1804,1069,13.4,32.4,34,20.2,1747,21.4,38777,1287.39,6.32830766123708
"08023","CO","Costilla",0.319,0.609,1820,581,1109,0.351,0.63,2031,713,1279,37.27732493,-105.4276548,42,1,3628,1958,1670,63.8,32.1,0.4,0.1,1.5,0,2812,29000,4573,20737,2701,29.6,49.9,25.2,18.1,23.6,22.7,10.4,74.1,14.2,0,4.3,0,7.4,18.1,1242,63.5,22.4,14.1,0,9.1,9,12,579,640,956,514,21.5,23.8,35.6,19.1,964,25.2,31557,1226.95,2.95692571009414
"08025","CO","Crowley",0.707,0.222,1511,1069,336,0.729,0.247,1730,1262,427,38.32608609,-103.7844965,99,1,5514,3752,1762,30.7,62.4,4.3,1.1,0.4,0,4506,35292,6589,14393,2450,24.6,31.3,22.2,29.1,16,17.8,14.9,78.3,9.5,0,6.2,0.4,5.6,23.1,1747,66.7,26.7,6.6,0,21.4,8,7,590,1615,1297,372,15.2,41.7,33.5,9.6,1341,44.3,35880,787.42,7.00261613878235
"08027","CO","Custer",0.672,0.26,3064,2059,797,0.679,0.308,3585,2433,1104,38.10883162,-105.3683478,24,0,4505,2200,2305,4.6,89.7,2.5,1,0,0.1,3781,41330,3601,26032,3966,15.7,25.9,30.1,24.2,11.3,24.8,9.6,66,11.5,0,2.9,0,19.6,27.1,1389,59.4,16.9,23.2,0.5,8.7,8,7,253,754,1261,1324,7,21,35.1,36.9,576,12,55242,738.63,6.09912946942312
"08029","CO","Delta",0.695,0.243,16661,11584,4048,0.675,0.304,19272,13013,5862,38.86246243,-107.8631342,217,3,30217,15221,14996,15,81.6,0.6,0.9,0.8,0,23372,42487,4104,25546,2288,16.5,22.6,34.5,19.7,17.7,17.7,10.5,75.4,10.3,0.2,4.7,1.4,8,24.3,11209,70.4,13.4,15.9,0.4,8.5,6,6,2130,8446,6857,4700,9.6,38.2,31,21.2,4429,14.6,46786,1142.05,26.4585613589598
"08031","CO","Denver",0.188,0.752,232291,43637,174611,0.182,0.796,393529,71543,313090,39.76018276,-104.8725695,19878,452,678467,339400,339067,30.5,53.6,9.2,0.5,3.5,0.1,475990,60098,950,38991,465,15.1,22.8,46.1,16.8,21.5,7.9,7.7,69.9,8.1,6.8,4.4,3.3,7.6,25.3,374043,83.5,10.8,5.5,0.1,4.5,1,1,64043,84265,110388,237877,12.9,17,22.2,47.9,82104,11.7,68069,153,4434.42483660131
"08033","CO","Dolores",0.761,0.185,1230,936,227,0.755,0.232,1431,1080,332,37.75208676,-108.5211585,3,0,1736,946,790,4.6,91.3,0,0.8,0,0,1362,40352,7713,23190,2985,14.1,19.7,26.3,24.3,23.5,17.6,8.3,60.3,13.5,0,17.2,0.1,8.9,19.2,797,64.5,24.2,10.9,0.4,0.4,9,12,115,539,454,300,8.2,38.3,32.2,21.3,265,12.8,47482,1067.05,1.62691532730425
"08035","CO","Douglas",0.548,0.367,182918,100178,67045,0.524,0.452,230478,120661,104199,39.33133796,-104.930001,4458,65,320940,159804,161136,8.3,83.3,1.1,0.1,4.4,0.1,222455,111154,1484,48725,653,3.6,3.8,53.7,11.6,25,4.6,5,78,6.7,1.9,1,1.4,11,27.6,169625,83.3,11.6,5.1,0.1,3.3,1,1,4347,26287,59981,124635,2,12.2,27.9,57.9,8975,2.6,120670,840.25,381.957750669444
"08037","CO","Eagle",0.361,0.56,22611,8153,12652,0.341,0.637,28427,9685,18095,39.62754308,-106.6933637,1521,10,53726,28560,25166,29.6,67.3,0.8,0.4,0.9,0.1,34723,83803,4624,40450,2140,7.7,10,33,26.3,20.8,11.5,8.5,73.9,8.2,5.4,2.3,1.1,8.9,22.3,33466,86.1,8,5.8,0.1,2.7,5,8,4075,5979,9672,18316,10.7,15.7,25.4,48.1,3673,6.7,86896,1684.53,31.893762651897
"08039","CO","Elbert",0.735,0.195,15689,11536,3056,0.74,0.237,18554,13722,4395,39.28656773,-104.1358721,246,3,24553,12442,12111,6.5,89.4,0.6,0.5,0.6,0,18801,92849,4456,42522,2128,4.8,5,42.3,14.4,20.1,12.2,11,77.9,9.4,0.1,0.9,1,10.7,40.4,13086,75.1,15.8,8.7,0.4,3.6,1,1,595,4374,6449,6388,3.3,24.6,36.2,35.9,1312,5,98247,1850.85,13.2657967960667
"08041","CO","El Paso",0.563,0.338,313273,176506,105807,0.536,0.427,375058,200968,160265,38.83240149,-104.5251411,11214,204,674826,340118,334708,16.5,69.9,5.8,0.4,2.7,0.4,486507,62535,844,31217,385,11.1,14.2,40.8,18.4,23.9,8.4,8.4,77.5,10.4,0.8,3.3,1.5,6.3,23,304289,77.9,16.3,5.6,0.2,6.8,2,2,27792,89218,157396,167680,6.3,20.2,35.6,37.9,68538,9.9,67923,2126.8,317.29640774873
"08043","CO","Fremont",0.689,0.241,21880,15066,5275,0.688,0.286,25058,17231,7170,38.47362326,-105.4399667,839,2,46601,27073,19528,13,79.5,4.5,1,0.7,0.1,38393,44712,1951,20919,1113,15.8,24.7,30.8,25.7,23.7,12.7,7.2,81.9,8.8,0.3,2.3,2.5,4.3,22.7,14406,64.7,27.6,7.7,0.1,6.2,4,5,3539,14477,11733,6625,9.7,39.8,32.3,18.2,6525,16.5,47885,1533.07,30.3971769064687
"08045","CO","Garfield",0.496,0.426,26328,13071,11205,0.477,0.499,30216,14404,15070,39.59921777,-107.902708,1239,5,57945,29334,28611,28.1,68.6,0.4,0.5,0.8,0,36803,66503,2244,31483,1233,9.6,11.7,32.1,19.6,21,17.3,10,73.1,10.9,3.8,2.7,2.7,6.8,31.6,30411,78.2,13.1,8.6,0.1,5.4,5,8,4740,11076,11329,11651,12.2,28.5,29.2,30,4946,8.4,74421,2947.56,19.658632903147
"08047","CO","Gilpin",0.438,0.457,3574,1564,1634,0.438,0.531,4143,1815,2199,39.85646523,-105.5252597,30,0,5793,3108,2685,9.2,86.2,0.6,1.3,0.3,0,4673,72544,5648,45110,7280,5.6,5.5,44.4,23.1,16.9,6.7,8.9,74.9,6.9,1.1,2.3,1.3,13.6,36.6,3399,85.5,9.2,5.2,0,3.3,1,1,114,1035,1731,1820,2.4,22,36.8,38.7,410,6.7,72949,149.9,38.6457638425617
"08049","CO","Grand",0.525,0.39,8513,4467,3319,0.495,0.477,9804,4857,4676,40.10603347,-106.1178042,159,1,14793,7997,6796,8.1,86.9,0.4,0,1.9,0.7,11576,66489,6712,32919,2466,13.1,21.1,30.2,24.7,16.8,22,6.2,64.6,14.8,2.9,5.5,1.8,10.5,22.2,8829,83.4,13.9,2.7,0,4.6,7,10,512,3016,3556,4306,4.5,26.5,31.2,37.8,1219,7.9,69214,1846.33,8.01211051112206
"08051","CO","Gunnison",0.349,0.545,9299,3250,5068,0.331,0.641,10887,3599,6976,38.66611652,-107.0320729,322,7,16215,8795,7420,9.1,87.4,0.3,0.8,0.5,0.1,13020,52651,4811,27669,1392,14.1,7.1,33.2,23.1,19.1,16.3,8.3,57.7,10.5,3,16.2,8.6,3.9,14.2,9429,71.7,18,9.2,1.2,7.3,7,11,296,1687,2738,5832,2.8,16,25.9,55.3,1678,10.4,61268,3239.1,5.00602019079374
"08053","CO","Hinsdale",0.576,0.334,589,339,197,0.559,0.403,632,353,255,37.82247444,-107.3004345,4,0,820,384,436,6,90.9,0,1.6,0,0,672,53056,13171,29574,5344,12,18.9,44.6,19,16.8,17.5,2,67.4,10.2,0,16,2.8,3.6,12.3,399,62.2,28.6,8.8,0.5,4.1,9,12,45,186,176,318,6.2,25.7,24.3,43.9,69,8.6,62149,1117.25,0.73394495412844
"08055","CO","Huerfano",0.497,0.432,3772,1875,1631,0.5,0.472,4389,2193,2071,37.68473101,-104.9612585,38,2,6498,3230,3268,34.7,64.2,0.2,0.3,0.1,0,5418,35801,2554,25547,2540,14.8,20,31.8,23.2,22.8,13.6,8.6,75.4,9.1,0.9,7.2,1.1,6.3,20.8,2408,60.4,20.1,17.2,2.4,7.9,6,6,442,1486,2136,1106,8.5,28.7,41.3,21.4,1459,21.7,38242,1591,4.08422375864236
"08057","CO","Jackson",0.729,0.198,862,628,171,0.779,0.198,873,680,173,40.6659387,-106.3408905,9,0,1372,676,696,24.4,74.9,0,0.4,0,0,1002,45994,4071,24299,3523,12.8,22.5,30.6,15.3,16.8,28.4,8.9,61.2,4.1,0.1,14.1,4,16.5,28.9,707,72.3,20.7,6.6,0.4,1.8,9,10,120,287,398,163,12.4,29.6,41.1,16.8,188,13.4,51457,1613.72,0.850209453932529
"08059","CO","Jefferson",0.421,0.491,309529,130233,151885,0.393,0.579,376915,148227,218166,39.58635604,-105.2517692,9533,319,564029,280635,283394,15.2,78.7,1,0.4,2.7,0.1,430864,75170,854,40187,457,7.8,9.9,45.6,14.9,24.5,7.6,7.5,78.3,7.7,3.3,1.5,1.4,7.8,27.5,305799,80.2,13.3,6.4,0.1,4.3,1,1,22840,84351,121561,180236,5.6,20.6,29.7,44.1,39799,7,85550,764.21,738.054984886353
"08061","CO","Kiowa",0.851,0.107,853,726,91,0.881,0.109,902,795,98,38.43260896,-102.7392145,6,0,1368,687,681,4.4,88,0.6,0,0,0,988,39250,3911,23621,2714,10.6,14.1,33.1,23.4,18.2,14.4,10.9,78.6,2.1,0.5,6.8,4.6,7.5,16.3,632,52.4,29,18.2,0.5,3.1,9,12,39,361,347,204,4.1,38,36.5,21.5,188,13.8,44704,1767.77,0.773856327463414
"08063","CO","Kit Carson",0.801,0.146,3613,2894,526,0.813,0.17,3792,3084,644,39.30497777,-102.6022199,139,3,7846,4392,3454,19.2,76.3,3.2,0.1,0.4,0.5,5476,45881,4121,26125,4750,11.5,16.3,30.4,18.3,22.7,21.7,6.9,74.5,11.2,0.8,5.2,1,7.3,12.1,3632,66,22.5,11.2,0.3,5.3,7,11,622,2033,1714,1017,11.5,37.7,31.8,18.9,900,12.6,48342,2160.82,3.63102896122768
"08065","CO","Lake",0.398,0.504,3175,1264,1600,0.379,0.581,3938,1492,2287,39.20278823,-106.3555697,143,0,7481,4079,3402,33.9,64.3,0.1,0,0.6,0,5614,46176,6432,28492,3165,12.8,12.1,30.5,20.1,23.1,18.4,8,67,10.3,1.5,10.9,2,8.3,28.6,4184,72.7,18.1,9.2,0,5.7,6,4,792,1482,1333,1858,14.5,27.1,24.4,34,970,12.6,51802,376.91,19.8482396328036
"08067","CO","La Plata",0.406,0.498,30722,12471,15300,0.4,0.576,35524,14194,20450,37.28632032,-107.8429014,395,2,54469,27424,27045,12.6,79,0.5,5.2,0.6,0,42973,62533,2438,34501,1246,9.6,9,40.1,18.4,22.6,11.2,7.6,73.8,9.2,1.2,5.6,3.4,6.8,21.4,29184,73.5,16.6,9.7,0.3,4.4,4,5,1966,7980,12102,17223,5,20.3,30.8,43.9,5005,9.2,66219,1692.08,32.1905583660347
"08069","CO","Larimer",0.426,0.475,193897,82624,92170,0.408,0.562,223653,91197,125765,40.66671597,-105.4625784,4555,57,330976,164920,166056,11.2,83.2,0.9,0.5,2,0.1,254898,64980,1414,34087,585,12.4,10.9,43.4,17.4,22.5,8.1,8.6,75,8.8,1.3,2.5,4.8,7.5,22.8,172754,77.1,16.4,6.3,0.2,5.3,2,2,9389,42507,66792,102473,4.2,19.2,30.2,46.3,36054,10.5,71306,2596,127.494607087827
"08071","CO","Las Animas",0.546,0.391,6693,3656,2614,0.539,0.439,7897,4255,3465,37.3153406,-104.0376458,85,1,14151,7323,6828,42.4,52.7,0.8,2.1,0.8,0,11150,40586,4510,24268,1512,17,21.4,31.7,24.6,20.5,13.2,9.9,71.6,13.6,0.8,5.8,0.6,7.6,20.6,6050,63.5,26.2,10.1,0.2,7.8,7,11,1270,2998,4101,2053,12.2,28.8,39.3,19.7,2626,19.2,41485,4772.67,2.96500700865553
"08073","CO","Lincoln",0.78,0.166,2402,1873,399,0.805,0.178,2630,2118,467,38.98749519,-103.5136649,25,0,5520,3522,1998,22.7,66.4,9,1,0.2,0.3,4226,44725,3719,14765,6474,14,15.1,37,22.4,23.6,9.4,7.6,72.3,11.6,0,5.1,2,9,17.3,1453,55.5,29.1,14.5,0.9,3.7,8,7,393,2164,995,520,9.7,53.1,24.4,12.8,744,16.2,46690,2577.63,2.14150207748979
"08075","CO","Logan",0.75,0.19,9702,7272,1843,0.767,0.211,10411,7987,2201,40.7249637,-103.110817,1321,13,21885,11723,10162,15.5,78.1,1.1,0.7,1,0,16575,44876,5064,24595,1608,16.8,23.6,29.1,21.4,20.8,15.7,13,75.7,12,0.5,5.8,0.7,5.3,19.2,10390,71,19.4,9.4,0.2,6.2,7,8,1540,4816,5352,3028,10.5,32.7,36.3,20.5,2674,14.5,53168,1838.55,11.9034021375541
"08077","CO","Mesa",0.643,0.28,74876,48129,20958,0.625,0.353,85368,53344,30106,39.01787888,-108.469799,1757,16,148798,73478,75320,14.2,81.8,0.7,0.6,0.7,0.1,113269,51971,1350,27612,670,16,21.9,33.8,18.4,23.7,12.5,11.6,77.9,9.2,0.4,3.7,2.6,6.2,20.2,68918,79.2,14.2,6.3,0.4,8,3,2,10188,28023,36303,28155,9.9,27.3,35.4,27.4,21463,14.4,51132,3328.97,44.6979095636188
"08079","CO","Mineral",0.528,0.363,652,344,237,0.564,0.42,754,425,317,37.66954283,-106.9281698,21,0,834,433,401,12.6,83.8,1.6,0,0.4,0,752,50385,6570,33018,3937,12,17.1,32.9,30.8,15.1,12.5,8.8,49.9,11.1,1.1,24.4,1.7,11.9,14,377,67.6,18.3,14.1,0,1.6,9,12,23,138,269,286,3.2,19.3,37.6,39.9,72,9.3,60210,875.67,0.952413580458392
"08081","CO","Moffat",0.813,0.134,6510,5293,874,0.808,0.17,6964,5627,1186,40.61810999,-108.2070876,77,1,13056,6772,6284,14.9,81.4,1,0.5,0.1,0.6,9338,53010,4266,27331,1685,10.1,8.6,27.7,16.9,24.2,20.9,10.3,72.6,17.7,1.1,4.1,1,3.6,22,6373,78.9,15,5.4,0.6,3.6,7,8,803,3570,2960,1514,9.1,40.4,33.5,17.1,1614,12.3,59500,4743.29,2.7525198754451
"08083","CO","Montezuma",0.612,0.309,12706,7771,3920,0.601,0.376,15421,9267,5802,37.33859579,-108.5958857,229,5,25770,12664,13106,12.2,73.1,0.2,11.8,0.1,0.1,19680,45645,3355,24440,1046,16.8,26.6,31.8,22.4,22.7,12.3,10.7,78.8,8.2,0.1,3.4,1.1,8.5,22,11258,66.1,21.9,11.7,0.3,5.9,6,6,1921,5361,5739,5207,10.5,29.4,31.5,28.6,4235,16.3,50180,2029.53,12.6975211009446
"08085","CO","Montrose",0.679,0.258,21070,14303,5438,0.673,0.309,24764,16658,7648,38.40214114,-108.2639022,493,13,40908,20182,20726,20.5,76.2,0.4,0.5,0.7,0.3,30265,44865,2428,24308,948,17.8,28,31.9,19.7,21.2,16,11.2,80.8,10.6,0.3,2.1,1.4,4.7,17.8,17047,73.4,15.9,10.4,0.3,8,4,5,3304,9337,9719,7017,11.2,31.8,33.1,23.9,4854,11.6,52576,2240.7,18.2567947516401
"08087","CO","Morgan",0.682,0.263,11888,8104,3128,0.701,0.279,13415,9407,3741,40.2627981,-103.8093302,913,48,28123,13997,14126,35.8,59.2,2.9,0.3,0.5,0.1,18095,51456,1911,24077,1425,9.3,12.2,24.5,19.6,18.5,16.6,20.9,72.2,19.2,0.2,3.7,0.9,3.8,17.6,13280,76.3,15.9,7.7,0.1,4.5,6,3,3657,5709,5758,3231,19.9,31.1,31.4,17.6,3409,12.2,55387,1280.43,21.9637153143866
"08089","CO","Otero",0.593,0.341,5038,2988,1719,0.602,0.376,9459,5696,3552,37.9014485,-103.7173385,182,7,18325,8957,9368,41.5,54.5,0.7,0.5,1,0.9,13236,35051,2700,20358,1322,22.9,29.8,35.1,20.6,20.1,11.4,12.9,79.4,10.4,0.1,3.8,1.3,5.2,16.2,7177,66.7,24,8.9,0.5,9.3,6,6,1797,3588,4714,2172,14.6,29.2,38.4,17.7,3722,20.8,40064,1261.96,14.5210624742464
"08091","CO","Ouray",0.407,0.514,3287,1337,1690,0.391,0.591,3960,1547,2341,38.14717457,-107.7675136,40,2,4653,2198,2455,5.7,92.5,0,0.3,0.5,0.1,3906,61333,5822,35544,2842,10.4,11.6,49.2,20.1,15,10.7,4.9,63.7,14.7,0,6.6,2.1,13,26.8,2315,66.6,17.5,15.9,0,5.9,9,10,62,699,1213,1866,1.6,18.2,31.6,48.6,361,7.5,68900,541.59,8.59136985542569
"08093","CO","Park",0.591,0.327,10245,6053,3351,0.57,0.398,12032,6864,4786,39.120926,-105.7182065,109,1,16900,8935,7965,5.9,89.7,0.1,1.1,1,0.7,13786,61644,5623,34377,2607,6.6,7.8,33.8,16.9,25.6,15.6,8.1,71.8,10.3,1.5,1.1,1.7,13.6,40.9,9044,72,16.9,10.2,0.9,4.6,1,1,401,4056,4995,4094,3,29.9,36.9,30.2,1487,8.1,72121,2193.85,7.70335255372974
"08095","CO","Phillips",0.768,0.187,2332,1791,436,0.79,0.194,2461,1945,477,40.59414277,-102.3577703,61,0,4327,2249,2078,20.1,77.4,0.2,0.3,0.4,0,2981,50076,8749,27790,2720,8.1,3.2,32.2,20.2,20.4,16.4,10.8,71.5,16.4,0,7.7,1.4,3,15.8,2104,70.9,15.5,13.2,0.5,2,9,10,336,786,1001,726,11.8,27.6,35.1,25.5,458,10.8,52367,687.93,6.28988414518919
"08097","CO","Pitkin",0.243,0.697,10387,2522,7239,0.232,0.753,11829,2739,8906,39.21720112,-106.9310027,298,2,17747,9363,8384,9.8,85.7,1.2,0.2,1.4,0,13549,67755,7367,65800,16145,7.1,5.9,41.6,22.2,22.3,7.5,6.4,51.8,3.8,14.3,11.2,6.2,12.7,17.5,11435,77.7,10,12.3,0,4.3,7,8,501,2025,2516,8606,3.7,14.8,18.4,63.1,1222,6.8,89034,970.7,18.2826826001854
"08099","CO","Prowers",0.705,0.236,4978,3508,1173,0.722,0.261,5507,3977,1438,37.95544985,-102.3926052,202,4,12084,6111,5973,37.2,60,0.4,0.2,0.6,0,8080,41740,2550,22033,1380,18.3,23.5,32.9,19,22.7,16.3,9.1,77,12.4,0,1.6,2,7,13.8,5372,70.9,20.6,8.3,0.2,8.4,7,11,1399,2027,3040,1365,17.9,25.9,38.8,17.4,2553,21.6,42455,1638.4,7.37548828125
"08101","CO","Pueblo",0.462,0.465,60112,27746,27945,0.478,0.496,86760,41502,43070,38.17359144,-104.5127437,2436,45,163368,80330,83038,42.7,52.4,1.6,0.5,0.7,0.1,122128,42386,1201,23110,461,19.8,26.7,31.3,21.4,25.6,9.6,12.1,81.5,11.2,1.1,2.1,1.2,2.9,21.8,66165,76.6,17.9,5.3,0.2,9.3,3,2,11814,32066,43446,24568,10.6,28.7,38.8,22,28127,17.2,48308,2386.1,68.4665353505721
"08103","CO","Rio Blanco",0.81,0.126,3436,2782,433,0.83,0.152,3672,3047,557,39.97913541,-108.2179009,31,0,6557,3325,3232,9.9,88.3,0.3,0.1,0.1,0.1,4863,57991,8135,28185,2236,11.8,15.4,27.8,16.4,18.4,25.3,12.2,67.8,17.3,1.1,4.8,2,7,17.3,3061,73.7,21.7,4.5,0,6.3,9,10,301,1406,1616,843,7.2,33.7,38.8,20.2,653,10.8,63411,3220.93,2.03574743940415
"08105","CO","Rio Grande",0.558,0.362,5488,3060,1985,0.58,0.396,6280,3645,2488,37.5836865,-106.3847838,132,3,11430,5729,5701,44.6,52.2,0.3,1.7,0.2,0.2,8249,38534,3781,22412,1578,18.1,24.1,27.8,16.9,23.7,20.7,10.9,78.1,13.7,0.6,2.6,1.3,3.6,17.4,4705,68.2,20.4,11,0.3,8.8,7,11,1203,2312,2332,1818,15.7,30.2,30.4,23.7,1604,14.5,44171,911.96,12.533444449318
"08107","CO","Routt",0.374,0.544,13772,5149,7487,0.351,0.628,16767,5883,10523,40.48596505,-106.9905548,230,9,24359,12675,11684,6.9,89.8,0.8,0.5,1.1,0,18986,67472,4036,38111,2735,10.7,11.5,34.2,24.3,23,11.3,7.2,68.3,9.9,3.2,4.6,4.8,9.2,17.9,14555,83.1,10.8,6.1,0,3.1,7,8,595,3613,4871,9232,3.2,19.7,26.6,50.4,1783,7,81033,2362.03,10.3127394656291
"08109","CO","Saguache",0.41,0.497,2707,1109,1345,0.416,0.556,3337,1389,1857,38.08054629,-106.282466,147,2,6338,3141,3197,37,58.3,0,1,1.1,0,4479,34765,4061,22267,2805,21,27.2,30.5,13.5,16.6,26.5,12.9,71.8,10.8,0.8,6.3,2,8.3,18.8,2465,63,22.9,13.9,0.2,7.7,9,12,919,1399,1306,1074,19.6,29.8,27.8,22.9,1679,24.6,36869,3168.53,2.00029666753984
"08111","CO","San Juan",0.425,0.524,506,215,265,0.359,0.607,563,202,342,37.76248981,-107.6763289,10,0,569,301,268,13.4,86.1,0,0.5,0,0,475,46397,6858,28889,4554,3.3,0,28.9,27.2,23,12.5,8.5,47.2,11.1,0,25.2,13.8,2.6,12.3,305,63.3,19.3,17.4,0,9.8,9,10,33,124,147,160,7.1,26.7,31.7,34.5,109,14.4,46878,387.49,1.46842499161269
"08113","CO","San Miguel",0.239,0.687,4311,1030,2960,0.214,0.769,5057,1081,3890,38.00450883,-108.4020725,110,0,7804,4150,3654,9.9,86.9,0.2,0.4,1,0,6015,62243,4055,42015,5422,10.5,11.4,37.8,21,21.3,10.3,9.6,45.9,8.2,12,13.2,6.6,14.1,19.1,4746,73.6,13.7,12.1,0.6,3.8,9,12,296,908,1385,3387,5,15.2,23.2,56.7,702,8.6,69458,1286.61,6.06555210980795
"08115","CO","Sedgwick",0.744,0.196,1364,1015,267,0.777,0.206,1441,1120,297,40.87595412,-102.3519227,46,1,2357,1176,1181,11.2,82.5,1.3,0.5,1.5,0,1795,49583,4753,24666,2180,17,24.6,38.8,14.4,20.2,16.5,10.1,75.6,16,0.8,2.2,0.5,4.9,20.6,992,70.4,21.7,6.3,1.7,6.8,9,10,167,508,666,353,9.9,30,39.3,20.8,338,14.9,40009,548.04,4.30078096489307
"08117","CO","Summit",0.315,0.592,16061,5064,9502,0.288,0.684,18330,5275,12535,39.63803232,-106.1150762,778,4,29722,16218,13504,14,81.9,0.9,0.3,0.4,0.2,23166,73538,3671,37192,2108,10.3,15.3,27.8,29.2,22.4,11.9,8.7,72.4,3.8,6.7,7.1,1.8,8.1,16.4,19358,82.8,10.2,7,0,3.3,5,8,1539,4339,5321,11672,6.7,19,23.3,51,2056,6.7,80078,608.36,48.8559405615096
"08119","CO","Teller",0.675,0.25,14203,9580,3547,0.664,0.311,16793,11158,5224,38.88133511,-105.1614893,263,4,23769,11926,11843,6.2,89.5,0.7,0.4,1,0,19158,66809,3624,34974,1999,7.5,7.1,38.4,20.8,20.7,12,8.1,75.4,12.6,0.4,2.2,2.1,7.3,32.6,11685,74.1,18.6,7,0.4,6.7,2,2,769,4643,6600,6200,4.2,25.5,36.2,34,1851,7.4,64850,557.06,42.6686532868991
"08121","CO","Washington",0.843,0.107,2708,2284,289,0.862,0.123,2943,2537,363,39.97015535,-103.202587,106,0,4809,2485,2324,9.6,87.8,0.9,0.3,0.5,0,3626,51458,5812,26279,1714,9.9,10.3,39,15,16.1,14.9,14.9,74.7,9.2,0.7,3.3,1,11.1,24,2213,63.9,20.9,15,0.2,4.2,9,10,254,1076,1492,545,7.5,32,44.3,16.2,646,13.7,47869,2518.03,1.90982633249008
"08123","CO","Weld",0.567,0.343,133790,75882,45869,0.576,0.395,164791,94965,65169,40.55499405,-104.3929621,6766,159,285729,143783,141946,29,66.4,1,0.4,1.3,0.1,193934,66489,1582,29226,528,11.2,13.4,33.2,16.9,22.7,13,14.2,80,10.6,0.6,2.1,1.3,5.5,26.7,139546,80.6,12.9,6.3,0.3,5.3,2,2,22517,51960,63828,50460,11.9,27.5,33.8,26.7,32314,10.5,75629,3987.24,71.6608481054564
"08125","CO","Yuma",0.805,0.15,4664,3755,701,0.826,0.156,4885,4037,763,40.00346839,-102.4258673,227,1,10109,5010,5099,22.6,75.7,0.5,0.3,0,0,6732,44668,2373,24789,1902,14.3,21.7,29.4,14.4,22.2,21.4,12.6,68.8,13.8,0.1,6.5,0.3,10.5,15.7,4940,71.6,15.5,12.4,0.5,2.4,7,11,786,2219,2151,1464,11.9,33.5,32.5,22.1,1191,12.1,53253,2364.41,4.27548521618501
